objectid,location_name,location_address,address_line__2,city,state,zip_code,county,naaccrqualcode,naaccrqualtype,matchedlocationtype,regionsizeunits,interpolationtype,regionsize,interpolationsubtype,featurematchinggeographytype,matchscore,featurematchinghierarchy,tiehandlingstrategytype,geocodequalitytype,latitude,longitude,matchtype,charitable_food,accepts_snap,organization,co_sponsor,type,frequency,day,times,year_round_or_dates,description,eligibility_requirements,eligibility_requirement,no_photo_id_required,no_registration_required,restricted_access_only_members_o,age_restrictions_for_children_or,age_restrictions_for_seniors_onl,income_maximum_for_eligibility,delivery_available,prepared_meals,grocery_items,fresh_produce,languages_spoken_other_than_engl,other_services_provided_diapers,other_services_provided_baby_for,other_services_provided_financia,other_services_provided_clothing,other_services_provided,metro,bus,store_type
2888,7-Eleven Inc F 39737A,4154 S 4 Mile Run Dr,,Arlington,VA,22206,ARLINGTON,9,AddressZIPCentroid,LOCATION_TYPE_STREET_ADDRESS,Meters,ArealInterpolation,5315049,ArealInterpolationGeometricCentroid,USPSZip,60,FeatureClassBased,ReturnAll,USPSZipAreaCentroid,38.841045,-77.092445,Relaxed;Soundex,0,1,,,,,,,,,,,,,,,,,,,,0,,,,,,,,,Convenience store
4931,Lideta Market,1607 S Glebe Rd,,Arlington,VA,22204,ARLINGTON,2,Parcel,LOCATION_TYPE_STREET_ADDRESS,Meters,ArealInterpolation,498.6814,ArealInterpolationGeometricCentroid,Parcel,95.325447,FeatureClassBased,ReturnAll,ExactParcelCentroidPoint,38.890587,-77.119003,Relaxed,0,1,,,,,,,,,,,,,,,,,,,,1,,,,,,,,,Supermarket/Grocery Store
6699,Asni Inc,1045 S Edgewood St,,Arlington,VA,22204,ARLINGTON,3,StreetSegmentInterpolation,LOCATION_TYPE_STREET_ADDRESS,Meters,LinearInterpolation,2855.9011,LinearInterpolationAddressRange,StreetSegment,100,FeatureClassBased,ReturnAll,AddressRangeInterpolation,38.862259,-77.086182,Exact,0,1,,,,,,,,,,,,,,,,,,,,1,,,,,,,,,Supermarket/Grocery Store
7070,Ft Myers Commissary 2518,523 Carpenter Rd,,Fort Myer,VA,22211,ARLINGTON,9,AddressZIPCentroid,LOCATION_TYPE_STREET_ADDRESS,Meters,ArealInterpolation,4533965.5,ArealInterpolationGeometricCentroid,USPSZip,60,FeatureClassBased,ReturnAll,USPSZipAreaCentroid,38.886948,-77.078209,Relaxed;Soundex,0,1,,,,,,,,,,,,,,,,,,,,0,,,,,,,,,Misc
9530,Arlington Mill Farmers Market,909 S Dinwiddie St,,Arlington,VA,22204,ARLINGTON,3,StreetSegmentInterpolation,LOCATION_TYPE_STREET_ADDRESS,Meters,LinearInterpolation,2260.2388,LinearInterpolationAddressRange,StreetSegment,100,FeatureClassBased,ReturnAll,AddressRangeInterpolation,38.85667,-77.11264,Exact,0,1,,,,,,,,,,,,,,,,,,,,1,,,,,,,,,Farmer's market
10983,Target Store 3210,1500 Wilson Blvd,,Rosslyn,VA,22209,ARLINGTON,2,Parcel,LOCATION_TYPE_STREET_ADDRESS,Meters,ArealInterpolation,4595.1108,ArealInterpolationGeometricCentroid,Parcel,96,FeatureClassBased,ReturnAll,ExactParcelCentroidPoint,38.894348,-77.074356,Relaxed,0,1,,,,,,,,,,,,,,,,,,,,1,,,,,,,,,Supermarket/Grocery Store
11778,Bangla Bazar,5149 Lee Hwy,,Arlington,VA,22207,ARLINGTON,3,StreetSegmentInterpolation,LOCATION_TYPE_STREET_ADDRESS,Meters,LinearInterpolation,3334.8015,LinearInterpolationAddressRange,StreetSegment,100,FeatureClassBased,ReturnAll,AddressRangeInterpolation,38.896427,-77.13224,Exact,0,1,,,,,,,,,,,,,,,,,,,,1,,,,,,,,,Supermarket/Grocery Store
12340,7-Eleven 34082A,3503 Fairfax Dr,,Arlington,VA,22201,ARLINGTON,3,StreetSegmentInterpolation,LOCATION_TYPE_STREET_ADDRESS,Meters,LinearInterpolation,2124.6201,LinearInterpolationAddressRange,StreetSegment,100,FeatureClassBased,ReturnAll,AddressRangeInterpolation,38.884212,-77.101669,Exact,0,1,,,,,,,,,,,,,,,,,,,,0,,,,,,,,,Convenience store
14024,Giant Food 748,2901-11 S Glebe Rd,,Arlington,VA,22206,ARLINGTON,2,Parcel,LOCATION_TYPE_STREET_ADDRESS,Meters,ArealInterpolation,14538.319,ArealInterpolationGeometricCentroid,Parcel,96.633133,FeatureClassBased,ReturnAll,ExactParcelCentroidPoint,38.845398,-77.068916,Relaxed,0,1,,,,,,,,,,,,,,,,,,,,1,,,,,,,,,Supermarket/Grocery Store
14025,Giant Food 771,3115 Lee Hwy,,Arlington,VA,22201,ARLINGTON,2,Parcel,LOCATION_TYPE_STREET_ADDRESS,Meters,ArealInterpolation,16184.268,ArealInterpolationGeometricCentroid,Parcel,100,FeatureClassBased,ReturnAll,ExactParcelCentroidPoint,38.896622,-77.096313,Exact,0,1,,,,,,,,,,,,,,,,,,,,1,,,,,,,,,Supermarket/Grocery Store
14027,Safeway  764,2500 N Harrison St,,Arlington,VA,22207,ARLINGTON,2,Parcel,LOCATION_TYPE_STREET_ADDRESS,Meters,ArealInterpolation,9272.666,ArealInterpolationGeometricCentroid,Parcel,100,FeatureClassBased,ReturnAll,ExactParcelCentroidPoint,38.896851,-77.13942,Exact,0,1,,,,,,,,,,,,,,,,,,,,1,,,,,,,,,Supermarket/Grocery Store
14028,Safeway  1358,5101 Wilson Blvd,,Arlington,VA,22205,ARLINGTON,2,Parcel,LOCATION_TYPE_STREET_ADDRESS,Meters,ArealInterpolation,9480.2383,ArealInterpolationGeometricCentroid,Parcel,100,FeatureClassBased,ReturnAll,ExactParcelCentroidPoint,38.878052,-77.123154,Exact,0,1,,,,,,,,,,,,,,,,,,,,1,,,,,,,,,Supermarket/Grocery Store
15975,Arlington Grocery,2524 Columbia Pike,,Arlington,VA,22204,ARLINGTON,3,StreetSegmentInterpolation,LOCATION_TYPE_STREET_ADDRESS,Meters,LinearInterpolation,2117.2656,LinearInterpolationAddressRange,StreetSegment,97.928993,FeatureClassBased,ReturnAll,AddressRangeInterpolation,38.863152,-77.08432,Relaxed,0,1,,,,,,,,,,,,,,,,,,,,1,,,,,,,,,Supermarket/Grocery Store
16460,Super Giant 0774,2501 9th Rd S,,Arlington,VA,22204,ARLINGTON,3,StreetSegmentInterpolation,LOCATION_TYPE_STREET_ADDRESS,Meters,LinearInterpolation,6433.0645,LinearInterpolationAddressRange,StreetSegment,94.08284,FeatureClassBased,ReturnAll,AddressRangeInterpolation,38.864647,-77.08461,Relaxed,0,1,,,,,,,,,,,,,,,,,,,,1,,,,,,,,,Supermarket/Grocery Store
26484,Trader Joes 640,1109 N Highland St,,Arlington,VA,22201,ARLINGTON,3,StreetSegmentInterpolation,LOCATION_TYPE_STREET_ADDRESS,Meters,LinearInterpolation,2191.7957,LinearInterpolationAddressRange,StreetSegment,100,FeatureClassBased,ReturnAll,AddressRangeInterpolation,38.886417,-77.094772,Exact,0,1,,,,,,,,,,,,,,,,,,,,1,,,,,,,,,Supermarket/Grocery Store
26615,Asia Halal Supermarket,5171 Lee Hwy,,Arlington,VA,22207,ARLINGTON,3,StreetSegmentInterpolation,LOCATION_TYPE_STREET_ADDRESS,Meters,LinearInterpolation,2746.7603,LinearInterpolationAddressRange,StreetSegment,100,FeatureClassBased,ReturnAll,AddressRangeInterpolation,38.896423,-77.132843,Exact,0,1,,,,,,,,,,,,,,,,,,,,1,,,,,,,,,Supermarket/Grocery Store
31789,7-Eleven Inc F 27547A,50300 Lee Highway,,Arlington,VA,22207,ARLINGTON,9,AddressZIPCentroid,LOCATION_TYPE_STREET_ADDRESS,Meters,ArealInterpolation,16707555,ArealInterpolationGeometricCentroid,USPSZip,60,FeatureClassBased,ReturnAll,USPSZipAreaCentroid,38.90353,-77.129761,Relaxed;Soundex,0,1,,,,,,,,,,,,,,,,,,,,0,,,,,,,,,Convenience store
38622,7-Eleven 34646B,1625 Wilson Blvd,,Arlington,VA,22209,ARLINGTON,2,Parcel,LOCATION_TYPE_STREET_ADDRESS,Meters,ArealInterpolation,594.62939,ArealInterpolationGeometricCentroid,Parcel,100,FeatureClassBased,ReturnAll,ExactParcelCentroidPoint,38.894348,-77.078056,Exact,0,1,,,,,,,,,,,,,,,,,,,,0,,,,,,,,,Convenience store
39508,Brook Market,2522 Columbia Pike,,Arlington,VA,22204,ARLINGTON,3,StreetSegmentInterpolation,LOCATION_TYPE_STREET_ADDRESS,Meters,LinearInterpolation,2117.2656,LinearInterpolationAddressRange,StreetSegment,97.928993,FeatureClassBased,ReturnAll,AddressRangeInterpolation,38.863159,-77.084305,Relaxed,0,1,,,,,,,,,,,,,,,,,,,,0,,,,,,,,,Misc
42019,El Latino & African Market 1,4611 Columbia Pike,,Arlington,VA,22204,ARLINGTON,2,Parcel,LOCATION_TYPE_STREET_ADDRESS,Meters,ArealInterpolation,897.84906,ArealInterpolationGeometricCentroid,Parcel,99,FeatureClassBased,ReturnAll,ExactParcelCentroidPoint,38.857506,-77.107147,Relaxed,0,1,,,,,,,,,,,,,,,,,,,,1,,,,,,,,,Supermarket/Grocery Store
45802,7-Eleven Inc F 10717A,1131 S George Mason Dr,,Arlington,VA,22204,ARLINGTON,2,Parcel,LOCATION_TYPE_STREET_ADDRESS,Meters,ArealInterpolation,623.35284,ArealInterpolationGeometricCentroid,Parcel,95.325447,FeatureClassBased,ReturnAll,ExactParcelCentroidPoint,38.884357,-77.125221,Relaxed,0,1,,,,,,,,,,,,,,,,,,,,0,,,,,,,,,Convenience store
48638,Megamart Express,5001 Columbia Pike,,Arlington,VA,22204,ARLINGTON,3,StreetSegmentInterpolation,LOCATION_TYPE_STREET_ADDRESS,Meters,LinearInterpolation,1940.9834,LinearInterpolationAddressRange,StreetSegment,100,FeatureClassBased,ReturnAll,AddressRangeInterpolation,38.855824,-77.112625,Exact,0,1,,,,,,,,,,,,,,,,,,,,1,,,,,,,,,Supermarket/Grocery Store
50869,"7-Eleven, Inc F 32966B",4223 Fairfax Dr,,Arlington,VA,22203,ARLINGTON,2,Parcel,LOCATION_TYPE_STREET_ADDRESS,Meters,ArealInterpolation,2150.6787,ArealInterpolationGeometricCentroid,Parcel,100,FeatureClassBased,ReturnAll,ExactParcelCentroidPoint,38.882614,-77.111542,Exact,0,1,,,,,,,,,,,,,,,,,,,,0,,,,,,,,,Convenience store
51163,Columbia Pike Farmers Market,2820 Columbia Pike,,Arlington,VA,22204,ARLINGTON,2,Parcel,LOCATION_TYPE_STREET_ADDRESS,Meters,ArealInterpolation,4283.5166,ArealInterpolationGeometricCentroid,Parcel,99,FeatureClassBased,ReturnAll,ExactParcelCentroidPoint,38.862133,-77.086594,Relaxed,0,1,,,,,,,,,,,,,,,,,,,,1,,,,,,,,,Farmer's market
60582,Safeway  1048,1525 Wilson Blvd,,Arlington,VA,22209,ARLINGTON,2,Parcel,LOCATION_TYPE_STREET_ADDRESS,Meters,ArealInterpolation,6858.3232,ArealInterpolationGeometricCentroid,Parcel,100,FeatureClassBased,ReturnAll,ExactParcelCentroidPoint,38.895096,-77.075317,Exact,0,1,,,,,,,,,,,,,,,,,,,,1,,,,,,,,,Supermarket/Grocery Store
61378,Freshfarm Rosslyn Market,1201 Wilson Blvd,,Arlington,VA,22209,ARLINGTON,3,StreetSegmentInterpolation,LOCATION_TYPE_STREET_ADDRESS,Meters,LinearInterpolation,1523.7686,LinearInterpolationAddressRange,StreetSegment,100,FeatureClassBased,ReturnAll,AddressRangeInterpolation,38.89518,-77.070808,Exact,0,1,,,,,,,,,,,,,,,,,,,,1,,,,,,,,,Farmer's market
61693,Glebe Market,300 N Glebe Rd,,Arlington,VA,22203,ARLINGTON,3,StreetSegmentInterpolation,LOCATION_TYPE_STREET_ADDRESS,Meters,LinearInterpolation,1888.3835,LinearInterpolationAddressRange,StreetSegment,100,FeatureClassBased,ReturnAll,AddressRangeInterpolation,38.873833,-77.105202,Exact,0,1,,,,,,,,,,,,,,,,,,,,1,,,,,,,,,Supermarket/Grocery Store
61695,Safeway  4007,3713 Lee Hwy,,Arlington,VA,22207,ARLINGTON,2,Parcel,LOCATION_TYPE_STREET_ADDRESS,Meters,ArealInterpolation,12345.32,ArealInterpolationGeometricCentroid,Parcel,100,FeatureClassBased,ReturnAll,ExactParcelCentroidPoint,38.896671,-77.1054,Exact,0,1,,,,,,,,,,,,,,,,,,,,1,,,,,,,,,Supermarket/Grocery Store
66806,Whole Foods Market 10042,2700 Wilson Blvd,,Arlington,VA,22201,ARLINGTON,2,Parcel,LOCATION_TYPE_STREET_ADDRESS,Meters,ArealInterpolation,1236.9257,ArealInterpolationGeometricCentroid,Parcel,100,FeatureClassBased,ReturnAll,ExactParcelCentroidPoint,38.88924,-77.090897,Exact,0,1,,,,,,,,,,,,,,,,,,,,1,,,,,,,,,Supermarket/Grocery Store
88091,7-Eleven Inc F 27672A,4970 Columbia Pike,,Arlington,VA,22204,ARLINGTON,2,Parcel,LOCATION_TYPE_STREET_ADDRESS,Meters,ArealInterpolation,1112.9384,ArealInterpolationGeometricCentroid,Parcel,99,FeatureClassBased,ReturnAll,ExactParcelCentroidPoint,38.855839,-77.111511,Relaxed,0,1,,,,,,,,,,,,,,,,,,,,0,,,,,,,,,Convenience store
90453,Freshfarm Arlington Courthouse Farmers Market N/A,1425 N Courthouse Rd,,Arlington,VA,22201,ARLINGTON,9,AddressZIPCentroid,LOCATION_TYPE_STREET_ADDRESS,Meters,ArealInterpolation,6058556.5,ArealInterpolationGeometricCentroid,USPSZip,60,FeatureClassBased,ReturnAll,USPSZipAreaCentroid,38.887344,-77.098839,Relaxed;Soundex,0,1,,,,,,,,,,,,,,,,,,,,1,,,,,,,,,Farmer's market
90771,7-Eleven Inc F 23242A,3003 Columbia Pike,,Arlington,VA,22204,ARLINGTON,2,Parcel,LOCATION_TYPE_STREET_ADDRESS,Meters,ArealInterpolation,3513.6831,ArealInterpolationGeometricCentroid,Parcel,99,FeatureClassBased,ReturnAll,ExactParcelCentroidPoint,38.862598,-77.088417,Relaxed,0,1,,,,,,,,,,,,,,,,,,,,0,,,,,,,,,Convenience store
90928,7-Eleven Inc F 28511A,426 23rd St S,,Arlington,VA,22202,ARLINGTON,3,StreetSegmentInterpolation,LOCATION_TYPE_STREET_ADDRESS,Meters,LinearInterpolation,1762.7319,LinearInterpolationAddressRange,StreetSegment,100,FeatureClassBased,ReturnAll,AddressRangeInterpolation,38.853298,-77.052826,Exact,0,1,,,,,,,,,,,,,,,,,,,,0,,,,,,,,,Convenience store
91317,7-Eleven Inc F 22343A,4689 King St,,Arlington,VA,22206,ARLINGTON,3,StreetSegmentInterpolation,LOCATION_TYPE_STREET_ADDRESS,Meters,LinearInterpolation,2684.7527,LinearInterpolationAddressRange,StreetSegment,100,FeatureClassBased,ReturnAll,AddressRangeInterpolation,38.842831,-77.108955,Exact,0,1,,,,,,,,,,,,,,,,,,,,0,,,,,,,,,Convenience store
94038,7-Eleven 35372B 35372B,2906 N Sycamore St,,Arlington,VA,22207,ARLINGTON,3,StreetSegmentInterpolation,LOCATION_TYPE_STREET_ADDRESS,Meters,LinearInterpolation,3570.7473,LinearInterpolationAddressRange,StreetSegment,100,FeatureClassBased,ReturnAll,AddressRangeInterpolation,38.899059,-77.156952,Exact,0,1,,,,,,,,,,,,,,,,,,,,0,,,,,,,,,Convenience store
95444,7-Eleven Inc F 29167B,2311 2nd St S,,Arlington,VA,22204,ARLINGTON,3,StreetSegmentInterpolation,LOCATION_TYPE_STREET_ADDRESS,Meters,LinearInterpolation,1367.4899,LinearInterpolationAddressRange,StreetSegment,100,FeatureClassBased,ReturnAll,AddressRangeInterpolation,38.871632,-77.084282,Exact,0,1,,,,,,,,,,,,,,,,,,,,0,,,,,,,,,Convenience store
95502,7-Eleven Inc F 18432A,3600 Columbia Pike,,Arlington,VA,22204,ARLINGTON,3,StreetSegmentInterpolation,LOCATION_TYPE_STREET_ADDRESS,Meters,LinearInterpolation,3577.3218,LinearInterpolationAddressRange,StreetSegment,97.928993,FeatureClassBased,ReturnAll,AddressRangeInterpolation,38.860683,-77.09391,Relaxed,0,1,,,,,,,,,,,,,,,,,,,,0,,,,,,,,,Convenience store
96097,"Sk Dominion Market, Llc",1201 S Courthouse Rd,,Arlington,VA,22204,ARLINGTON,2,Parcel,LOCATION_TYPE_STREET_ADDRESS,Meters,ArealInterpolation,27742.932,ArealInterpolationGeometricCentroid,Parcel,99,FeatureClassBased,ReturnAll,ExactParcelCentroidPoint,38.862305,-77.078545,Relaxed,0,1,,,,,,,,,,,,,,,,,,,,0,,,,,,,,,Convenience store
97864,Harris Teeter 235,4250 Campbell Ave,,Arlington,VA,22206,ARLINGTON,3,StreetSegmentInterpolation,LOCATION_TYPE_STREET_ADDRESS,Meters,LinearInterpolation,3090.1001,LinearInterpolationAddressRange,StreetSegment,100,FeatureClassBased,ReturnAll,AddressRangeInterpolation,38.841587,-77.089912,Exact,0,1,,,,,,,,,,,,,,,,,,,,1,,,,,,,,,Supermarket/Grocery Store
101365,7-Eleven Inc F 10743B,2815 S Wakefield St,,Arlington,VA,22206,ARLINGTON,2,Parcel,LOCATION_TYPE_STREET_ADDRESS,Meters,ArealInterpolation,1255.7085,ArealInterpolationGeometricCentroid,Parcel,99,FeatureClassBased,ReturnAll,ExactParcelCentroidPoint,38.844093,-77.097786,Relaxed,0,1,,,,,,,,,,,,,,,,,,,,0,,,,,,,,,Convenience store
108652,Harris Teeter 83,900 Army Navy Dr,,Arlington,VA,22202,ARLINGTON,9,AddressZIPCentroid,LOCATION_TYPE_STREET_ADDRESS,Meters,ArealInterpolation,10262343,ArealInterpolationGeometricCentroid,USPSZip,60,FeatureClassBased,ReturnAll,USPSZipAreaCentroid,38.86134,-77.05674,Relaxed;Soundex,0,1,,,,,,,,,,,,,,,,,,,,1,,,,,,,,,Supermarket/Grocery Store
108965,Cvs Pharmacy 1407,3133 Lee Hwy,,Arlington,VA,22201,ARLINGTON,3,StreetSegmentInterpolation,LOCATION_TYPE_STREET_ADDRESS,Meters,LinearInterpolation,1226.9862,LinearInterpolationAddressRange,StreetSegment,100,FeatureClassBased,ReturnAll,AddressRangeInterpolation,38.896053,-77.098419,Exact,0,1,,,,,,,,,,,,,,,,,,,,0,,,,,,,,,Convenience store
112340,7-Eleven Inc F 20407A,5122 Wilson Blvd,,Arlington,VA,22205,ARLINGTON,2,Parcel,LOCATION_TYPE_STREET_ADDRESS,Meters,ArealInterpolation,1987.5519,ArealInterpolationGeometricCentroid,Parcel,100,FeatureClassBased,ReturnAll,ExactParcelCentroidPoint,38.87756,-77.122688,Exact,0,1,,,,,,,,,,,,,,,,,,,,0,,,,,,,,,Convenience store
112765,7-Eleven Inc F 10716A,3901 Lee Hwy,,Arlington,VA,22207,ARLINGTON,3,StreetSegmentInterpolation,LOCATION_TYPE_STREET_ADDRESS,Meters,LinearInterpolation,1209.5922,LinearInterpolationAddressRange,StreetSegment,100,FeatureClassBased,ReturnAll,AddressRangeInterpolation,38.896725,-77.107269,Exact,0,1,,,,,,,,,,,,,,,,,,,,0,,,,,,,,,Convenience store
113774,7 Eleven Inc F 10740A,2525 Lee Hwy,,Arlington,VA,22201,ARLINGTON,2,Parcel,LOCATION_TYPE_STREET_ADDRESS,Meters,ArealInterpolation,991.95697,ArealInterpolationGeometricCentroid,Parcel,100,FeatureClassBased,ReturnAll,ExactParcelCentroidPoint,38.895142,-77.091026,Exact,0,1,,,,,,,,,,,,,,,,,,,,0,,,,,,,,,Convenience store
128508,Harris Teeter 262,3600 S Glebe Rd,Suite W100,Arlington,VA,22202,ARLINGTON,3,StreetSegmentInterpolation,LOCATION_TYPE_STREET_ADDRESS,Meters,LinearInterpolation,724.42035,LinearInterpolationAddressRange,StreetSegment,100,FeatureClassBased,ReturnAll,AddressRangeInterpolation,38.842598,-77.052773,Exact,0,1,,,,,,,,,,,,,,,,,,,,1,,,,,,,,,Supermarket/Grocery Store
138124,7-Eleven Inc F 33679A,3000 Washington Blvd,Ste A,Arlington,VA,22201,ARLINGTON,2,Parcel,LOCATION_TYPE_STREET_ADDRESS,Meters,ArealInterpolation,5908.918,ArealInterpolationGeometricCentroid,Parcel,100,FeatureClassBased,ReturnAll,ExactParcelCentroidPoint,38.88488,-77.094147,Exact,0,1,,,,,,,,,,,,,,,,,,,,0,,,,,,,,,Convenience store
146634,Cvs Pharmacy 2750,1201 S Hayes St,,Arlington,VA,22202,ARLINGTON,3,StreetSegmentInterpolation,LOCATION_TYPE_STREET_ADDRESS,Meters,LinearInterpolation,7124.7212,LinearInterpolationAddressRange,StreetSegment,100,FeatureClassBased,ReturnAll,AddressRangeInterpolation,38.863026,-77.059341,Exact,0,1,,,,,,,,,,,,,,,,,,,,0,,,,,,,,,Convenience store
150063,Harris Teeter 371,950 S George Mason Dr,,Arlington,VA,22204,ARLINGTON,3,StreetSegmentInterpolation,LOCATION_TYPE_STREET_ADDRESS,Meters,LinearInterpolation,10419.438,LinearInterpolationAddressRange,StreetSegment,100,FeatureClassBased,ReturnAll,AddressRangeInterpolation,38.860115,-77.102348,Exact,0,1,,,,,,,,,,,,,,,,,,,,1,,,,,,,,,Supermarket/Grocery Store
150315,7-Eleven Inc F 20117A,1500 South Fern Street,,Arlington,VA,22202,ARLINGTON,2,Parcel,LOCATION_TYPE_STREET_ADDRESS,Meters,ArealInterpolation,12542.258,ArealInterpolationGeometricCentroid,Parcel,95.857986,FeatureClassBased,ReturnAll,ExactParcelCentroidPoint,38.859112,-77.056755,Relaxed,0,1,,,,,,,,,,,,,,,,,,,,0,,,,,,,,,Convenience store
151141,Walgreens 17593,1700 N Moore St Ste M1A,,Rosslyn,VA,22209,ARLINGTON,2,Parcel,LOCATION_TYPE_STREET_ADDRESS,Meters,ArealInterpolation,2067.749,ArealInterpolationGeometricCentroid,Parcel,96,FeatureClassBased,ReturnAll,ExactParcelCentroidPoint,38.895302,-77.071877,Relaxed,0,1,,,,,,,,,,,,,,,,,,,,0,,,,,,,,,Convenience store
151162,Walgreens 19419,4720B Lee Hwy,,Arlington,VA,22207,ARLINGTON,2,Parcel,LOCATION_TYPE_STREET_ADDRESS,Meters,ArealInterpolation,7222.9756,ArealInterpolationGeometricCentroid,Parcel,97.633133,FeatureClassBased,ReturnAll,ExactParcelCentroidPoint,38.897438,-77.122498,Relaxed,0,1,,,,,,,,,,,,,,,,,,,,0,,,,,,,,,Convenience store
151711,Walgreens 19265,5841 Washington Blvd,,Arlington,VA,22205,ARLINGTON,3,StreetSegmentInterpolation,LOCATION_TYPE_STREET_ADDRESS,Meters,LinearInterpolation,1634.7155,LinearInterpolationAddressRange,StreetSegment,100,FeatureClassBased,ReturnAll,AddressRangeInterpolation,38.885052,-77.140358,Exact,0,1,,,,,,,,,,,,,,,,,,,,0,,,,,,,,,Convenience store
153562,Walgreens 18419,1301 S Joyce St Ste D3,,Arlington,VA,22202,ARLINGTON,3,StreetSegmentInterpolation,LOCATION_TYPE_STREET_ADDRESS,Meters,LinearInterpolation,17528.17,LinearInterpolationAddressRange,StreetSegment,100,FeatureClassBased,ReturnAll,AddressRangeInterpolation,38.863361,-77.063622,Exact,0,1,,,,,,,,,,,,,,,,,,,,0,,,,,,,,,Convenience store
153563,Walgreens 19650,2820 Columbia Pike,,Arlington,VA,22204,ARLINGTON,2,Parcel,LOCATION_TYPE_STREET_ADDRESS,Meters,ArealInterpolation,4283.5166,ArealInterpolationGeometricCentroid,Parcel,99,FeatureClassBased,ReturnAll,ExactParcelCentroidPoint,38.862133,-77.086594,Relaxed,0,1,,,,,,,,,,,,,,,,,,,,0,,,,,,,,,Convenience store
155220,Harris Teeter 086,600 N Glebe Rd,,Arlington,VA,22203,ARLINGTON,2,Parcel,LOCATION_TYPE_STREET_ADDRESS,Meters,ArealInterpolation,14106.305,ArealInterpolationGeometricCentroid,Parcel,100,FeatureClassBased,ReturnAll,ExactParcelCentroidPoint,38.876427,-77.110275,Exact,0,1,,,,,,,,,,,,,,,,,,,,1,,,,,,,,,Supermarket/Grocery Store
155437,Costco Wholesale 0233,1200 S Fern St,,Arlington,VA,22202,ARLINGTON,2,Parcel,LOCATION_TYPE_STREET_ADDRESS,Meters,ArealInterpolation,67530.891,ArealInterpolationGeometricCentroid,Parcel,100,FeatureClassBased,ReturnAll,ExactParcelCentroidPoint,38.861366,-77.057869,Exact,0,1,,,,,,,,,,,,,,,,,,,,1,,,,,,,,,Supermarket/Grocery Store
159600,Asia Market,5143 Lee Hwy,,Arlington,VA,22207,ARLINGTON,2,Parcel,LOCATION_TYPE_STREET_ADDRESS,Meters,ArealInterpolation,214.80977,ArealInterpolationGeometricCentroid,Parcel,100,FeatureClassBased,ReturnAll,ExactParcelCentroidPoint,38.896679,-77.13195,Exact,0,1,,,,,,,,,,,,,,,,,,,,1,,,,,,,,,Supermarket/Grocery Store
161942,New Start Cares Llc,610 S Carlin Springs Rd,Apt 153,Arlington,VA,22204,ARLINGTON,3,StreetSegmentInterpolation,LOCATION_TYPE_STREET_ADDRESS,Meters,LinearInterpolation,11846.209,LinearInterpolationAddressRange,StreetSegment,100,FeatureClassBased,ReturnAll,AddressRangeInterpolation,38.860336,-77.128197,Exact,0,1,,,,,,,,,,,,,,,,,,,,0,,,,,,,,,Misc
163076,7-Eleven Inc F 10741A,2704 Washington Blvd,,Arlington,VA,22201,ARLINGTON,3,StreetSegmentInterpolation,LOCATION_TYPE_STREET_ADDRESS,Meters,LinearInterpolation,3784.4224,LinearInterpolationAddressRange,StreetSegment,97.928993,FeatureClassBased,ReturnAll,AddressRangeInterpolation,38.879665,-77.089798,Relaxed,0,1,,,,,,,,,,,,,,,,,,,,0,,,,,,,,,Convenience store
163216,Walgreens 13941,3130 Lee Hwy,,Arlington,VA,22201,ARLINGTON,2,Parcel,LOCATION_TYPE_STREET_ADDRESS,Meters,ArealInterpolation,6762.3687,ArealInterpolationGeometricCentroid,Parcel,100,FeatureClassBased,ReturnAll,ExactParcelCentroidPoint,38.8955,-77.098007,Exact,0,1,,,,,,,,,,,,,,,,,,,,0,,,,,,,,,Convenience store
165835,7-Eleven 27004,201 S Glebe Rd,,Arlington,VA,22204,ARLINGTON,2,Parcel,LOCATION_TYPE_STREET_ADDRESS,Meters,ArealInterpolation,2529.646,ArealInterpolationGeometricCentroid,Parcel,99,FeatureClassBased,ReturnAll,ExactParcelCentroidPoint,38.86834,-77.097206,Relaxed,0,1,,,,,,,,,,,,,,,,,,,,0,,,,,,,,,Convenience store
167364,Cvs Pharmacy 2712,1 Pentagon,Room2B1080,Arlington,VA,22202,ARLINGTON,9,AddressZIPCentroid,LOCATION_TYPE_STREET_ADDRESS,Meters,ArealInterpolation,10262343,ArealInterpolationGeometricCentroid,USPSZip,60,FeatureClassBased,ReturnAll,USPSZipAreaCentroid,38.86134,-77.05674,Relaxed;Soundex,0,1,,,,,,,,,,,,,,,,,,,,0,,,,,,,,,Convenience store
167880,Cvs Pharmacy 2142,2601 Columbia Pike,,Arlington,VA,22204,ARLINGTON,2,Parcel,LOCATION_TYPE_STREET_ADDRESS,Meters,ArealInterpolation,6919.8193,ArealInterpolationGeometricCentroid,Parcel,99,FeatureClassBased,ReturnAll,ExactParcelCentroidPoint,38.863304,-77.085655,Relaxed,0,1,,,,,,,,,,,,,,,,,,,,0,,,,,,,,,Convenience store
174214,7-Eleven 37684A 37684A,3137 Wilson Blvd,,Arlington,VA,22201,ARLINGTON,2,Parcel,LOCATION_TYPE_STREET_ADDRESS,Meters,ArealInterpolation,218.8694,ArealInterpolationGeometricCentroid,Parcel,100,FeatureClassBased,ReturnAll,ExactParcelCentroidPoint,38.887108,-77.095894,Exact,0,1,,,,,,,,,,,,,,,,,,,,0,,,,,,,,,Convenience store
174518,Ballston Freshfarm Market,901 N Taylor St,,Arlington,VA,22203,ARLINGTON,3,StreetSegmentInterpolation,LOCATION_TYPE_STREET_ADDRESS,Meters,LinearInterpolation,5087.0073,LinearInterpolationAddressRange,StreetSegment,96.00592,FeatureClassBased,ReturnAll,AddressRangeInterpolation,38.881142,-77.112495,Relaxed,0,1,,,,,,,,,,,,,,,,,,,,1,,,,,,,,,Farmer's market
177175,7-Eleven Inc F 34642A,6730 Lee Hwy,,Arlington,VA,22205,ARLINGTON,2,Parcel,LOCATION_TYPE_STREET_ADDRESS,Meters,ArealInterpolation,2399.6565,ArealInterpolationGeometricCentroid,Parcel,100,FeatureClassBased,ReturnAll,ExactParcelCentroidPoint,38.888226,-77.160393,Exact,0,1,,,,,,,,,,,,,,,,,,,,0,,,,,,,,,Convenience store
177673,7-Eleven 10747D 10747D,3510 Wilson Blvd,,Arlington,VA,22201,ARLINGTON,2,Parcel,LOCATION_TYPE_STREET_ADDRESS,Meters,ArealInterpolation,1519.6211,ArealInterpolationGeometricCentroid,Parcel,100,FeatureClassBased,ReturnAll,ExactParcelCentroidPoint,38.882236,-77.101402,Exact,0,1,,,,,,,,,,,,,,,,,,,,0,,,,,,,,,Convenience store
182750,Cvs Pharmacy 1884,256 N Glebe Rd,,Arlington,VA,22203,ARLINGTON,3,StreetSegmentInterpolation,LOCATION_TYPE_STREET_ADDRESS,Meters,LinearInterpolation,2833.7622,LinearInterpolationAddressRange,StreetSegment,100,FeatureClassBased,ReturnAll,AddressRangeInterpolation,38.873287,-77.104439,Exact,0,1,,,,,,,,,,,,,,,,,,,,0,,,,,,,,,Convenience store
182751,Cvs Pharmacy 1375,5017 Columbia Pike,,Arlington,VA,22204,ARLINGTON,3,StreetSegmentInterpolation,LOCATION_TYPE_STREET_ADDRESS,Meters,LinearInterpolation,1940.9834,LinearInterpolationAddressRange,StreetSegment,100,FeatureClassBased,ReturnAll,AddressRangeInterpolation,38.855797,-77.112686,Exact,0,1,,,,,,,,,,,,,,,,,,,,0,,,,,,,,,Convenience store
183462,Harris Teeter  23,2425 N Harrison St,,Arlington,VA,22207,ARLINGTON,2,Parcel,LOCATION_TYPE_STREET_ADDRESS,Meters,ArealInterpolation,23334.52,ArealInterpolationGeometricCentroid,Parcel,100,FeatureClassBased,ReturnAll,ExactParcelCentroidPoint,38.897209,-77.138115,Exact,0,1,,,,,,,,,,,,,,,,,,,,1,,,,,,,,,Supermarket/Grocery Store
187289,Walgreens 3676,1671 Crystal Square Arc,,Arlington,VA,22202,ARLINGTON,9,AddressZIPCentroid,LOCATION_TYPE_STREET_ADDRESS,Meters,ArealInterpolation,10262343,ArealInterpolationGeometricCentroid,USPSZip,60,FeatureClassBased,ReturnAll,USPSZipAreaCentroid,38.86134,-77.05674,Relaxed;Soundex,0,1,,,,,,,,,,,,,,,,,,,,0,,,,,,,,,Convenience store
188569,Cvs Pharmacy Cvs11229,1550 Crystal Dr,,Arlington,VA,22202,ARLINGTON,3,StreetSegmentInterpolation,LOCATION_TYPE_STREET_ADDRESS,Meters,LinearInterpolation,2181.2131,LinearInterpolationAddressRange,StreetSegment,100,FeatureClassBased,ReturnAll,AddressRangeInterpolation,38.86021,-77.049385,Exact,0,1,,,,,,,,,,,,,,,,,,,,0,,,,,,,,,Convenience store
190438,Mom'S Organic Market 14,1901 N Veitch St,,Arlington,VA,22201,ARLINGTON,3,StreetSegmentInterpolation,LOCATION_TYPE_STREET_ADDRESS,Meters,LinearInterpolation,2328.4502,LinearInterpolationAddressRange,StreetSegment,100,FeatureClassBased,ReturnAll,AddressRangeInterpolation,38.896019,-77.086441,Exact,0,1,,,,,,,,,,,,,,,,,,,,1,,,,,,,,,Supermarket/Grocery Store
195228,Cvs Pharmacy 2274,3141 Wilson Blvd,,Arlington,VA,22201,ARLINGTON,2,Parcel,LOCATION_TYPE_STREET_ADDRESS,Meters,ArealInterpolation,1134.2555,ArealInterpolationGeometricCentroid,Parcel,100,FeatureClassBased,ReturnAll,ExactParcelCentroidPoint,38.886963,-77.096085,Exact,0,1,,,,,,,,,,,,,,,,,,,,0,,,,,,,,,Convenience store
195242,Cvs Pharmacy 2418,2121 15th St N,,Arlington,VA,22201,ARLINGTON,3,StreetSegmentInterpolation,LOCATION_TYPE_STREET_ADDRESS,Meters,LinearInterpolation,1355.3256,LinearInterpolationAddressRange,StreetSegment,100,FeatureClassBased,ReturnAll,AddressRangeInterpolation,38.890835,-77.084885,Exact,0,1,,,,,,,,,,,,,,,,,,,,0,,,,,,,,,Convenience store
195585,Cvs Pharmacy 1372,6404 Williamsburg Blvd,,Arlington,VA,22207,ARLINGTON,3,StreetSegmentInterpolation,LOCATION_TYPE_STREET_ADDRESS,Meters,LinearInterpolation,2870.4226,LinearInterpolationAddressRange,StreetSegment,97.928993,FeatureClassBased,ReturnAll,AddressRangeInterpolation,38.900043,-77.156654,Relaxed,0,1,,,,,,,,,,,,,,,,,,,,0,,,,,,,,,Convenience store
195586,Cvs Pharmacy 1380,4709 Lee Hwy,Suite A,Arlington,VA,22207,ARLINGTON,2,Parcel,LOCATION_TYPE_STREET_ADDRESS,Meters,ArealInterpolation,2644.3303,ArealInterpolationGeometricCentroid,Parcel,100,FeatureClassBased,ReturnAll,ExactParcelCentroidPoint,38.898369,-77.122322,Exact,0,1,,,,,,,,,,,,,,,,,,,,0,,,,,,,,,Convenience store
195593,Cvs Pharmacy 1421,1100 Wilson Blvd,,Rosslyn,VA,22209,ARLINGTON,2,Parcel,LOCATION_TYPE_STREET_ADDRESS,Meters,ArealInterpolation,5682.457,ArealInterpolationGeometricCentroid,Parcel,96,FeatureClassBased,ReturnAll,ExactParcelCentroidPoint,38.894535,-77.070297,Relaxed,0,1,,,,,,,,,,,,,,,,,,,,0,,,,,,,,,Convenience store
195672,Cvs Pharmacy 1833,4238 Wilson Blvd # 1831,,Arlington,VA,22203,ARLINGTON,3,StreetSegmentInterpolation,LOCATION_TYPE_STREET_ADDRESS,Meters,LinearInterpolation,2659.0059,LinearInterpolationAddressRange,StreetSegment,100,FeatureClassBased,ReturnAll,AddressRangeInterpolation,38.879826,-77.110771,Exact,0,1,,,,,,,,,,,,,,,,,,,,0,,,,,,,,,Convenience store
195673,Cvs Pharmacy 1835,5402 Lee Hwy,,Arlington,VA,22207,ARLINGTON,3,StreetSegmentInterpolation,LOCATION_TYPE_STREET_ADDRESS,Meters,LinearInterpolation,2548.5671,LinearInterpolationAddressRange,StreetSegment,100,FeatureClassBased,ReturnAll,AddressRangeInterpolation,38.896168,-77.137672,Exact,0,1,,,,,,,,,,,,,,,,,,,,0,,,,,,,,,Convenience store
195697,Cvs Pharmacy 2491,2400 Jefferson Davis Hwy,,Arlington,VA,22202,ARLINGTON,2,Parcel,LOCATION_TYPE_STREET_ADDRESS,Meters,ArealInterpolation,3225.7351,ArealInterpolationGeometricCentroid,Parcel,100,FeatureClassBased,ReturnAll,ExactParcelCentroidPoint,38.852196,-77.053101,Exact,0,1,,,,,,,,,,,,,,,,,,,,0,,,,,,,,,Convenience store
212595,Giant Food 743,3450 Washington Blvd,,Arlington,VA,22201,ARLINGTON,2,Parcel,LOCATION_TYPE_STREET_ADDRESS,Meters,ArealInterpolation,3686.875,ArealInterpolationGeometricCentroid,Parcel,100,FeatureClassBased,ReturnAll,ExactParcelCentroidPoint,38.885643,-77.102966,Exact,0,1,,,,,,,,,,,,,,,,,,,,1,,,,,,,,,Supermarket/Grocery Store
214665,Lucky Seven Food Mart,3215 24th St S,,Arlington,VA,22206,ARLINGTON,3,StreetSegmentInterpolation,LOCATION_TYPE_STREET_ADDRESS,Meters,LinearInterpolation,1601.3018,LinearInterpolationAddressRange,StreetSegment,100,FeatureClassBased,ReturnAll,AddressRangeInterpolation,38.848637,-77.08419,Exact,0,1,,,,,,,,,,,,,,,,,,,,1,,,,,,,,,Supermarket/Grocery Store
220861,Crystal City Freshfarm Market,1800 Crystal Drive,,Arlington,VA,22202,ARLINGTON,3,StreetSegmentInterpolation,LOCATION_TYPE_STREET_ADDRESS,Meters,LinearInterpolation,3921.4578,LinearInterpolationAddressRange,StreetSegment,100,FeatureClassBased,ReturnAll,AddressRangeInterpolation,38.857697,-77.049332,Exact,0,1,,,,,,,,,,,,,,,,,,,,1,,,,,,,,,Farmer's market
225891,Cvs Pharmacy Cvs10498,1555 Wilson Blvd,,Arlington,VA,22209,ARLINGTON,2,Parcel,LOCATION_TYPE_STREET_ADDRESS,Meters,ArealInterpolation,1947.5504,ArealInterpolationGeometricCentroid,Parcel,100,FeatureClassBased,ReturnAll,ExactParcelCentroidPoint,38.894871,-77.075897,Exact,0,1,,,,,,,,,,,,,,,,,,,,0,,,,,,,,,Convenience store
226578,7-Eleven Store 39061A,4505 Lee Hwy,,Arlington,VA,22207,ARLINGTON,2,Parcel,LOCATION_TYPE_STREET_ADDRESS,Meters,ArealInterpolation,954.5188,ArealInterpolationGeometricCentroid,Parcel,100,FeatureClassBased,ReturnAll,ExactParcelCentroidPoint,38.898785,-77.118912,Exact,0,1,,,,,,,,,,,,,,,,,,,,0,,,,,,,,,Convenience store
227608,7-Eleven 37130A 37130A,2001 Clarendon Blvd,,Arlington,VA,22201,ARLINGTON,3,StreetSegmentInterpolation,LOCATION_TYPE_STREET_ADDRESS,Meters,LinearInterpolation,6087.6655,LinearInterpolationAddressRange,StreetSegment,100,FeatureClassBased,ReturnAll,AddressRangeInterpolation,38.89167,-77.082649,Exact,0,1,,,,,,,,,,,,,,,,,,,,0,,,,,,,,,Convenience store
234200,Whole Foods Market 10531,520 12th St S,Ste 100,Arlington,VA,22202,ARLINGTON,3,StreetSegmentInterpolation,LOCATION_TYPE_STREET_ADDRESS,Meters,LinearInterpolation,5834.0771,LinearInterpolationAddressRange,StreetSegment,100,FeatureClassBased,ReturnAll,AddressRangeInterpolation,38.862621,-77.056976,Exact,0,1,,,,,,,,,,,,,,,,,,,,1,,,,,,,,,Supermarket/Grocery Store
235206,Harris Teeter 413,4550 King Street,,Alexandria,VA,22203,ARLINGTON,9,AddressZIPCentroid,LOCATION_TYPE_STREET_ADDRESS,Meters,ArealInterpolation,3973846.5,ArealInterpolationGeometricCentroid,USPSZip,60,FeatureClassBased,ReturnAll,USPSZipAreaCentroid,38.875126,-77.119606,Relaxed;Soundex,0,1,,,,,,,,,,,,,,,,,,,,1,,,,,,,,,Supermarket/Grocery Store
239934,Cvs Pharmacy 11191,4060 Campbell Ave,,Arlington,VA,22206,ARLINGTON,3,StreetSegmentInterpolation,LOCATION_TYPE_STREET_ADDRESS,Meters,LinearInterpolation,3785.1223,LinearInterpolationAddressRange,StreetSegment,100,FeatureClassBased,ReturnAll,AddressRangeInterpolation,38.840763,-77.087967,Exact,0,1,,,,,,,,,,,,,,,,,,,,0,,,,,,,,,Convenience store
239995,Cvs Pharmacy 11752,750 N Glebe Rd,,Arlington,VA,22203,ARLINGTON,2,Parcel,LOCATION_TYPE_STREET_ADDRESS,Meters,ArealInterpolation,5308.4189,ArealInterpolationGeometricCentroid,Parcel,100,FeatureClassBased,ReturnAll,ExactParcelCentroidPoint,38.879475,-77.113869,Exact,0,1,,,,,,,,,,,,,,,,,,,,0,,,,,,,,,Convenience store
240659,Target Store T3257,740 N Glebe Rd,,Arlington,VA,22203,ARLINGTON,3,StreetSegmentInterpolation,LOCATION_TYPE_STREET_ADDRESS,Meters,LinearInterpolation,3338.5278,LinearInterpolationAddressRange,StreetSegment,100,FeatureClassBased,ReturnAll,AddressRangeInterpolation,38.879482,-77.113098,Exact,0,1,,,,,,,,,,,,,,,,,,,,1,,,,,,,,,Supermarket/Grocery Store
242739,7-Eleven 10734B,17 S Carlin Springs Rd,,Arlington,VA,22204,ARLINGTON,3,StreetSegmentInterpolation,LOCATION_TYPE_STREET_ADDRESS,Meters,LinearInterpolation,1811.106,LinearInterpolationAddressRange,StreetSegment,100,FeatureClassBased,ReturnAll,AddressRangeInterpolation,38.865788,-77.128395,Exact,0,1,,,,,,,,,,,,,,,,,,,,0,,,,,,,,,Convenience store
244711,7-Eleven 38212A 38212A,5747 Lee Hwy,,Arlington,VA,22207,ARLINGTON,2,Parcel,LOCATION_TYPE_STREET_ADDRESS,Meters,ArealInterpolation,1136.6062,ArealInterpolationGeometricCentroid,Parcel,100,FeatureClassBased,ReturnAll,ExactParcelCentroidPoint,38.895065,-77.143906,Exact,0,1,,,,,,,,,,,,,,,,,,,,0,,,,,,,,,Convenience store
1,Afac Headquarters,2708 S. Nelson St,,Arlington,VA,22206,ARLINGTON,2,Parcel,LOCATION_TYPE_STREET_ADDRESS,Meters,ArealInterpolation,527.18018,ArealInterpolationGeometricCentroid,Parcel,94.857986,FeatureClassBased,ReturnAll,ExactParcelCentroidPoint,38.843571,-77.089371,Relaxed,1,0,AFAC,NA,Food pantry,Open Mon-Sat. Participants can visit once per week.,"Mon-Fri, Sat","9:30 AM - 2 PM, Sat 9-11 AM",Year-round,"Supplemental groceries including protien, milk, eggs, fresh produce, and dry goods. Participants can visit this location once a week with a referral. Participants may only choose one AFAC location to pick up food from. Deliveries available to elderly, dis","Open to all Arlington residents. 1st time visitors must bring a photo ID and proof of address. Obtain a referral from DHS, APS social worker, or other social service agency to visit weekly.",1,0,0,0,0,0,0,1,0,1,1,NA,0,0,0,0,0,NA,"ART 72, 75, 77; Metrobus 7, 22A,  23A",Misc
2,Assembly Of God Church,4501 N. Pershing Dr.,,Arlington,VA,22203,ARLINGTON,2,Parcel,LOCATION_TYPE_STREET_ADDRESS,Meters,ArealInterpolation,11843.679,ArealInterpolationGeometricCentroid,Parcel,100,FeatureClassBased,ReturnAll,ExactParcelCentroidPoint,38.869171,-77.111069,Exact,1,0,AFAC,NA,Food pantry,Weekly,"Fridays until July 30, 2021",10:30 AM - 12 PM,Year-round,"Supplemental groceries including protien, milk, eggs, fresh produce, and dry goods. Participants can visit this location once a week with a referral. Participants may only choose one AFAC location to pick up food from.","Open to all Arlington residents. 1st time visitors must bring a photo ID and proof of address. Obtain a referral from DHS, APS social worker, or other social service agency to visit weekly.",1,0,0,0,0,0,0,0,0,1,1,NA,0,0,0,0,0,NA,"ART 41, 72; Metrobus 4B, 22A",Church/Mosque
3,Clarendon United Methodist Church,606 N. Irving St,,Arlington,VA,22201,ARLINGTON,2,Parcel,LOCATION_TYPE_STREET_ADDRESS,Meters,ArealInterpolation,6618.9507,ArealInterpolationGeometricCentroid,Parcel,100,FeatureClassBased,ReturnAll,ExactParcelCentroidPoint,38.880421,-77.097092,Exact,1,0,AFAC,NA,Food pantry,Weekly,Saturday,8:30 - 10:30 AM,Year-round,"Supplemental groceries including protien, milk, eggs, fresh produce, and dry goods. Participants can visit this location once a week with a referral. Participants may only choose one AFAC location to pick up food from.","Open to all Arlington residents. 1st time visitors must bring a photo ID and proof of address. Obtain a referral from DHS, APS social worker, or other social service agency to visit weekly.",1,0,0,0,0,0,0,0,0,1,1,NA,0,0,0,0,0,"Clarendon, Virginia Square","ART 41, 42, 77; Metrobus 4B, 38B",Church/Mosque
4,Claridge House Senior Apartments,1500 S Fern St,,Arlington,VA,22202,ARLINGTON,2,Parcel,LOCATION_TYPE_STREET_ADDRESS,Meters,ArealInterpolation,12542.258,ArealInterpolationGeometricCentroid,Parcel,95.857986,FeatureClassBased,ReturnAll,ExactParcelCentroidPoint,38.859112,-77.056755,Relaxed,1,0,AFAC,NA,Food pantry,Weekly,Monday,10:30 AM - 12 PM,Year-round,"Supplemental groceries including protien, milk, eggs, fresh produce, and dry goods. Participants can visit this location once a week with a referral. Participants may only choose one AFAC location to pick up food from.",Open to residents of Claridge House Senior Apartments. 1st time visitors must bring a photo ID and proof of address. Obtain a referral from Aging & Disability Services (DHS) to visit weekly.,1,0,0,1,0,1,0,0,0,1,1,0,0,0,0,0,0,"PentagonCity, Crystal City","ART 43, 87; Metrobus 10A, 23A",Apartments
5,Hunters Park Senior Apartments (Ahc),2021 N. Nelson St,,Arlington,VA,22207,ARLINGTON,3,StreetSegmentInterpolation,LOCATION_TYPE_STREET_ADDRESS,Meters,LinearInterpolation,5295.7476,LinearInterpolationAddressRange,StreetSegment,100,FeatureClassBased,ReturnAll,AddressRangeInterpolation,38.895271,-77.105171,Exact,1,0,AFAC,NA,Food pantry,Weekly,Tuesday,11 AM - 12 PM,Year-round,"Supplemental groceries including protien, milk, eggs, fresh produce, and dry goods. Participants can visit this location once a week with a referral. Participants may only choose one AFAC location to pick up food from.",Open to residents of Hunter's Park Senior Apartments. 1st time visitors must bring a photo ID and proof of address. Obtain a referral from AHC Resident Services Coordinator to visit weekly.,1,0,0,1,0,1,0,0,0,1,1,NA,0,0,0,0,0,NA,ART 55,Apartments
6,Woodland Hill Senior Apartments,610 S. Carlin Springs Rd.,,Arlington,VA,22204,ARLINGTON,3,StreetSegmentInterpolation,LOCATION_TYPE_STREET_ADDRESS,Meters,LinearInterpolation,11846.209,LinearInterpolationAddressRange,StreetSegment,100,FeatureClassBased,ReturnAll,AddressRangeInterpolation,38.860336,-77.128197,Exact,1,0,AFAC,NA,Food pantry,Weekly,Tuesday,12:30 - 2:30 PM,Year-round,"Supplemental groceries including protien, milk, eggs, fresh produce, and dry goods. Participants can visit this location once a week with a referral. Participants may only choose one AFAC location to pick up food from.",Open to residents of Woodland Hill Senior Apartments. 1st time visitors must bring a photo ID and proof of address. Obtain a referral from Woodland Hill Resident Services Coordinator to visit weekly.,1,0,0,1,0,1,0,0,0,1,1,NA,0,0,0,0,0,NA,"ART 45, 75; Metrobus 4B 16G, 25B",Apartments
7,The Carlin Senior Apartments,4300 N Carlin Springs Rd,,Arlington,VA,22203,ARLINGTON,2,Parcel,LOCATION_TYPE_STREET_ADDRESS,Meters,ArealInterpolation,3885.9751,ArealInterpolationGeometricCentroid,Parcel,95.857986,FeatureClassBased,ReturnAll,ExactParcelCentroidPoint,38.877171,-77.111702,Relaxed,1,0,AFAC,NA,Food pantry,Weekly,Thursday,11 AM - 12 PM,Year-round,"Supplemental groceries including protien, milk, eggs, fresh produce, and dry goods. Participants can visit this location once a week with a referral. Participants may only choose one AFAC location to pick up food from.",Open to residents of The Carlin Senior Apartments. 1st time visitors must bring a photo ID and proof of address. Obtain a referral from The Carlin Resident Services Coordinator to visit weekly.,1,0,0,1,0,1,0,0,0,1,1,0,0,0,0,0,0,Ballston,"ART 41, 42, 51, 52, 72, 75; Metrobus 1A, 2A, 4B, 10B, 22A, 25B, 38B",Apartments
8,Culpepper Gardens Senior Apartments,4435 N Pershing Dr,,Arlington,VA,22203,ARLINGTON,2,Parcel,LOCATION_TYPE_STREET_ADDRESS,Meters,ArealInterpolation,2128.6377,ArealInterpolationGeometricCentroid,Parcel,95.857986,FeatureClassBased,ReturnAll,ExactParcelCentroidPoint,38.871029,-77.111229,Relaxed,1,0,AFAC,NA,Food pantry,Every other week,Friday,12:30 - 2 PM,Year-round,"Supplemental groceries including protien, milk, eggs, fresh produce, and dry goods. Participants can visit this location once a week with a referral. Participants may only choose one AFAC location to pick up food from.",Open to residents of Culpepper Gardens Senior Apartments. 1st time visitors must bring a photo ID and proof of address. Obtain a referral from Culpepper Gardens Resident Services Coordinator to visit weekly.,1,0,0,1,0,1,0,0,0,1,1,0,0,0,0,0,0,NA,"ART 41,72; Metrobus 4B, 10B, 22A, 23A",Apartments
9,Arlington Mill Community Center (Cop),909 S Dinwiddie St,,Arlington,VA,22204,ARLINGTON,3,StreetSegmentInterpolation,LOCATION_TYPE_STREET_ADDRESS,Meters,LinearInterpolation,2260.2388,LinearInterpolationAddressRange,StreetSegment,100,FeatureClassBased,ReturnAll,AddressRangeInterpolation,38.85667,-77.11264,Exact,1,0,AFAC,NA,Food pantry,Weekly,Monday,9:30 - 11:30 AM,Year-round,"Supplemental groceries including protien, milk, eggs, fresh produce, and dry goods. Participants can visit this location once a week with a referral. Participants may only choose one AFAC location to pick up food from.  Diapers provided at this location,",Open to all residents of the Arlington Mill and Barcroft neighborhoods. 1st time visitors must bring a photo ID and proof of address. Obtain a referral from DHS Community Outreach Program to visit this location weekly.,1,0,0,0,0,0,0,0,0,1,1,NA,1,0,0,0,0,NA,"ART 41, 45, 75; Metrobus 16A/C/E/G/H, 22A",Misc
10,Columbia Hills & Columbia Grove Apartments (Apah),1010 S. Frederick St.,,Arlington,VA,22204,ARLINGTON,3,StreetSegmentInterpolation,LOCATION_TYPE_STREET_ADDRESS,Meters,LinearInterpolation,5544.2275,LinearInterpolationAddressRange,StreetSegment,100,FeatureClassBased,ReturnAll,AddressRangeInterpolation,38.853779,-77.115067,Exact,1,0,AFAC,NA,Food pantry,Weekly,Tuesday,1:30 - 3:30 PM,Year-round,"Supplemental groceries including protien, milk, eggs, fresh produce, and dry goods. Participants can visit this location once a week with a referral. Participants may only choose one AFAC location to pick up food from.",Open to APAH residents who live at Columbia Hills or Columbia Grove properties. 1st time visitors must bring a photo ID and proof of address. Obtain a referral from APAH to visit this location weekly.,1,0,0,1,0,0,0,1,0,1,1,NA,0,0,0,0,0,NA,"ART 41, 45, 75; Metrobus 16A/C/E/G/H, 22A, 25B, 28A",Apartments
11,The Apex Apartments (Ahc),2910 S. Glebe Rd,,Arlington,VA,22206,ARLINGTON,3,StreetSegmentInterpolation,LOCATION_TYPE_STREET_ADDRESS,Meters,LinearInterpolation,8306.0059,LinearInterpolationAddressRange,StreetSegment,100,FeatureClassBased,ReturnAll,AddressRangeInterpolation,38.844696,-77.069435,Exact,1,0,AFAC,NA,Food pantry,Weekly,Wednesday,9 - 11 AM,Year-round,"Supplemental groceries including protien, milk, eggs, fresh produce, and dry goods. Participants can visit this location once a week with a referral. Participants may only choose one AFAC location to pick up food from.",Open to AHC residents who live at The Apex. 1st time visitors must bring a photo ID and proof of address. Obtain a referral from AHC to visit this location weekly.,1,0,0,1,0,0,0,0,0,1,1,NA,0,0,0,0,0,NA,"ART 87; Metrobus 10A/B, 23A",Apartments
12,Whitefield Csc (Wesley Housing),106 N. Thomas St.,,Arlington,VA,22203,ARLINGTON,3,StreetSegmentInterpolation,LOCATION_TYPE_STREET_ADDRESS,Meters,LinearInterpolation,7877.7622,LinearInterpolationAddressRange,StreetSegment,100,FeatureClassBased,ReturnAll,AddressRangeInterpolation,38.871006,-77.104752,Exact,1,0,AFAC,NA,Food pantry,Weekly,Wednesday,10 AM - 12 PM,Year-round,"Supplemental groceries including protien, milk, eggs, fresh produce, and dry goods. Participants can visit this location once a week with a referral. Participants may only choose one AFAC location to pick up food from.",Open to Wesley Housing residents who live at Whitefield or Colonial Village apartments. 1st time visitors must bring a photo ID and proof of address. Obtain a referral from Wesley Housing to visit this location weekly.,1,0,0,1,0,0,0,0,0,1,1,0,0,0,0,0,0,NA,"ART 41,72; Metrobus 4B, 10B, 22A",Apartments
13,Woodbury Park & The Frederick Apartments (Ahc),2306 11th St N,,Arlington,VA,22201,ARLINGTON,3,StreetSegmentInterpolation,LOCATION_TYPE_STREET_ADDRESS,Meters,LinearInterpolation,20378.186,LinearInterpolationAddressRange,StreetSegment,100,FeatureClassBased,ReturnAll,AddressRangeInterpolation,38.884693,-77.087158,Exact,1,0,AFAC,NA,Food pantry,Weekly,Thursday,9:30 - 11:30 AM,Year-round,"Supplemental groceries including protien, milk, eggs, fresh produce, and dry goods. Participants can visit this location once a week with a referral. Participants may only choose one AFAC location to pick up food from.",Open to AHC residents who live at Woodbury Park & The Frederick apartments. 1st time visitors must bring a photo ID and proof of address. Obtain a referral from AHC to visit this location weekly.,1,0,0,1,0,0,0,0,0,1,1,NA,0,0,0,0,0,"Clarendon, Courthouse","ART 41, 42, 45,77; Metrobus 4B, 38B",Apartments
14,Marbella Apartments (Apah),1301 N. Queen St,,Arlington,VA,22209,ARLINGTON,3,StreetSegmentInterpolation,LOCATION_TYPE_STREET_ADDRESS,Meters,LinearInterpolation,2062.5278,LinearInterpolationAddressRange,StreetSegment,100,FeatureClassBased,ReturnAll,AddressRangeInterpolation,38.889278,-77.077286,Exact,1,0,AFAC,NA,Food pantry,Weekly,Thursday,1:30 - 3:30 PM,Year-round,"Supplemental groceries including protien, milk, eggs, fresh produce, and dry goods. Participants can visit this location once a week with a referral. Participants may only choose one AFAC location to pick up food from.","Open to APAH residents who live at Marbella, Courthouse Crossing, and Parc Rosslyn Apartments. 1st time visitors must bring a photo ID and proof of address. Obtain a referral from APAH to visit this location weekly.",1,0,0,1,0,0,0,1,0,1,1,NA,0,0,0,0,0,Courthouse,"ART 41, 45, 47; Metrobus 4B, 38B",Apartments
15,Gates Of Ballston Apartments (Ahc/Cop),4108 4th St N,,Arlington,VA,22203,ARLINGTON,3,StreetSegmentInterpolation,LOCATION_TYPE_STREET_ADDRESS,Meters,LinearInterpolation,7054.6279,LinearInterpolationAddressRange,StreetSegment,100,FeatureClassBased,ReturnAll,AddressRangeInterpolation,38.875378,-77.107491,Exact,1,0,AFAC,NA,Food pantry,Weekly,Friday,11:30 AM - 2:30 PM,Year-round,"Supplemental groceries including protien, milk, eggs, fresh produce, and dry goods. Participants can visit this location once a week with a referral. Participants may only choose one AFAC location to pick up food from.",Open to all residents of the Buckingham. 1st time visitors must bring a photo ID and proof of address. Obtain a referral from DHS Community Outreach Program or AHC Resident Services to visit this location weekly.,1,0,0,0,0,0,0,0,0,1,1,NA,0,0,0,0,0,NA,"ART 41, 42, 72, 75; Metrobus 1A, 4B, 10B, 22A, 23A, 25B",Apartments
16,Community Church Of God,790 South Carlin Springs Road,,Arlington,VA,22204,ARLINGTON,3,StreetSegmentInterpolation,LOCATION_TYPE_STREET_ADDRESS,Meters,LinearInterpolation,1586.0214,LinearInterpolationAddressRange,StreetSegment,98.99408,FeatureClassBased,ReturnAll,AddressRangeInterpolation,38.857002,-77.125969,Relaxed,1,0,Arlington Bridge Builders,Community Church of God,Food pantry,3 times weekly. Participants can come once a week.,"Wed, Thurs, Fri",10 AM - 5 PM (by appointment),Year-round,Visitors receive a box worth of pantry staples. Occasionally other items such as meat and vegetables are available. Families can come weekly as needed. Call or text the food pantry manager to set up an appointment or arrange for delivery if needed.,Open to all,0,1,0,0,0,0,0,1,0,1,0,NA,0,0,1,0,0,NA,"ART 41, 45, 75; Metrobus 16A/C/E/G/H, 25B, 28A",Church/Mosque
17,Courthouse Parking Lot,1400 N. Courthouse Rd.,,Arlington,VA,22201,ARLINGTON,9,AddressZIPCentroid,LOCATION_TYPE_STREET_ADDRESS,Meters,ArealInterpolation,6058556.5,ArealInterpolationGeometricCentroid,USPSZip,60,FeatureClassBased,ReturnAll,USPSZipAreaCentroid,38.887344,-77.098839,Relaxed;Soundex,1,1,Arlington Courthouse Farmer's Market,FreshFarm,Discount groceries,Weekly,Saturday,9 AM - 12 PM (Jan - Mar)8:30 - 12:30 (Apr - Dec),Year-round,"All FRESHFARM markets accept SNAP/EBT, WIC and Senior FMNP checks. FRESH Match provides a dollar-for-dollar match on all federal benefits spent at market.",NA,0,1,1,0,0,0,0,0,0,1,1,0,0,0,0,0,0,Courthouse,"ART 41, 43, 45, 55, 77; Metrobus 4B, 38B",Misc
18,Abingdon Elementary School,3035 South Abingdon St.,,Arlington,VA,22206,ARLINGTON,2,Parcel,LOCATION_TYPE_STREET_ADDRESS,Meters,ArealInterpolation,43251.676,ArealInterpolationGeometricCentroid,Parcel,99,FeatureClassBased,ReturnAll,ExactParcelCentroidPoint,38.839653,-77.096222,Relaxed,1,0,Arlington Public Schools,NA,School meals,3 times weekly,"Mon/Wed/Fri, July 7 until school starts",11 AM - 12 PM,July 7 until school starts,"Two breakfasts and two lunches are provided, including one hot lunch for children under 18. All meals include milk, fruits or vegetables and whole grains. Pickup meals at the tables outside the school entrance.",Child under 18,1,1,1,0,1,0,0,0,1,0,1,0,0,0,0,0,0,NA,"ART 72, 77; Metrobus 7A/F/Y, 22A",School
19,Arlington Career Center,816 S. Walter Reed Dr.,,Arlington,VA,22204,ARLINGTON,3,StreetSegmentInterpolation,LOCATION_TYPE_STREET_ADDRESS,Meters,LinearInterpolation,4240.4282,LinearInterpolationAddressRange,StreetSegment,100,FeatureClassBased,ReturnAll,AddressRangeInterpolation,38.865494,-77.087738,Exact,1,0,Arlington Public Schools,NA,School meals,3 times weekly,"Mon/Wed/Fri, July 7 until school starts",11 AM - 12 PM,July 7 until school starts,"Two breakfasts and two lunches are provided, including one hot lunch for children under 18. All meals include milk, fruits or vegetables and whole grains. Pickup meals at the tables outside the school entrance.",Child under 18,1,1,1,0,1,0,0,0,1,0,1,0,0,0,0,0,0,NA,"ART 41, 42, 45, 77; Metrobus 10B, 16A/C/E/G/H, 23A,",Misc
20,Ashlawn Elementary School,5950 8th Rd. N.,,Arlington,VA,22205,ARLINGTON,3,StreetSegmentInterpolation,LOCATION_TYPE_STREET_ADDRESS,Meters,LinearInterpolation,7932.7231,LinearInterpolationAddressRange,StreetSegment,100,FeatureClassBased,ReturnAll,AddressRangeInterpolation,38.873436,-77.135887,Exact,1,0,Arlington Public Schools,NA,School meals,3 times weekly,"Mon/Wed/Fri, July 7 until school starts",11 AM - 12 PM,July 7 until school starts,"Two breakfasts and two lunches are provided, including one hot lunch for children under 18. All meals include milk, fruits or vegetables and whole grains. Pickup meals at the tables outside the school entrance.",Child under 18,1,1,1,0,1,0,0,0,1,0,1,0,0,0,0,0,0,NA,Metrobus 1A,School
21,Barcroft Elementary School,625 S. Wakefield St.,,Arlington,VA,22204,ARLINGTON,2,Parcel,LOCATION_TYPE_STREET_ADDRESS,Meters,ArealInterpolation,20742.229,ArealInterpolationGeometricCentroid,Parcel,99,FeatureClassBased,ReturnAll,ExactParcelCentroidPoint,38.861908,-77.107445,Relaxed,1,0,Arlington Public Schools,NA,School meals,3 times weekly,"Mon/Wed/Fri, July 7 until school starts",11 AM - 12 PM,July 7 until school starts,"Two breakfasts and two lunches are provided, including one hot lunch for children under 18. All meals include milk, fruits or vegetables and whole grains. Pickup meals at the tables outside the school entrance.",Child under 18,1,1,1,0,1,0,0,0,1,0,1,0,0,0,0,0,0,NA,"ART 41,72; Metrobus 16A/C/E/G/H, 22A",School
22,Barrett Elementary School,4401 N. Henderson Rd.,,Arlington,VA,22203,ARLINGTON,2,Parcel,LOCATION_TYPE_STREET_ADDRESS,Meters,ArealInterpolation,19912.406,ArealInterpolationGeometricCentroid,Parcel,100,FeatureClassBased,ReturnAll,ExactParcelCentroidPoint,38.87302,-77.112411,Exact,1,0,Arlington Public Schools,NA,School meals,3 times weekly,"Mon/Wed/Fri, July 7 until school starts",11 AM - 12 PM,July 7 until school starts,"Two breakfasts and two lunches are provided, including one hot lunch for children under 18. All meals include milk, fruits or vegetables and whole grains. Pickup meals at the tables outside the school entrance.",Child under 18,1,1,1,0,1,0,0,0,1,0,1,0,0,0,0,0,0,NA,"ART 41; Metrobus 4B, 10B, 22A, 22A/B,23T, 25B",School
23,Campbell Elementary School,737 S. Carlin Springs Rd.,,Arlington,VA,22204,ARLINGTON,2,Parcel,LOCATION_TYPE_STREET_ADDRESS,Meters,ArealInterpolation,34321.418,ArealInterpolationGeometricCentroid,Parcel,99,FeatureClassBased,ReturnAll,ExactParcelCentroidPoint,38.85836,-77.125496,Relaxed,1,0,Arlington Public Schools,NA,School meals,3 times weekly,"Mon/Wed/Fri, July 7 until school starts",11 AM - 12 PM,July 7 until school starts,"Two breakfasts and two lunches are provided, including one hot lunch for children under 18. All meals include milk, fruits or vegetables and whole grains. Pickup meals at the tables outside the school entrance.",Child under 18,1,1,1,0,1,0,0,0,1,0,1,0,0,0,0,0,0,NA,"ART 41, 45; Metrobus 16A/C/E/G, 25B, 28A",School
24,Dr. Charles R. Drew Elementary School,3500 South 23rd St.,,Arlington,VA,22206,ARLINGTON,3,StreetSegmentInterpolation,LOCATION_TYPE_STREET_ADDRESS,Meters,LinearInterpolation,2234.0547,LinearInterpolationAddressRange,StreetSegment,99.349113,FeatureClassBased,ReturnAll,AddressRangeInterpolation,38.848999,-77.085747,Relaxed,1,0,Arlington Public Schools,NA,School meals,3 times weekly,"Mon/Wed/Fri, July 7 until school starts",11 AM - 12 PM,July 7 until school starts,"Two breakfasts and two lunches are provided, including one hot lunch for children under 18. All meals include milk, fruits or vegetables and whole grains. Pickup meals at the tables outside the school entrance.",Child under 18,1,1,1,0,1,0,0,0,1,0,1,0,0,0,0,0,0,NA,"ART 84, 87; Metrobus 10B, 23 A/B/T",School
25,Glebe Elementary School,1770 N. Glebe Rd.,,Arlington,VA,22207,ARLINGTON,2,Parcel,LOCATION_TYPE_STREET_ADDRESS,Meters,ArealInterpolation,28346.348,ArealInterpolationGeometricCentroid,Parcel,100,FeatureClassBased,ReturnAll,ExactParcelCentroidPoint,38.89238,-77.121429,Exact,1,0,Arlington Public Schools,NA,School meals,3 times weekly,"Mon/Wed/Fri, July 7 until school starts",11 AM - 12 PM,July 7 until school starts,"Two breakfasts and two lunches are provided, including one hot lunch for children under 18. All meals include milk, fruits or vegetables and whole grains. Pickup meals at the tables outside the school entrance.",Child under 18,1,1,1,0,1,0,0,0,1,0,1,0,0,0,0,0,0,NA,"ART 52, 55, 72; Metrobus 23A/T",School
26,Gunston Middle School,2700 S. Lang St.,,Arlington,VA,22206,ARLINGTON,2,Parcel,LOCATION_TYPE_STREET_ADDRESS,Meters,ArealInterpolation,79579.867,ArealInterpolationGeometricCentroid,Parcel,99,FeatureClassBased,ReturnAll,ExactParcelCentroidPoint,38.847958,-77.068733,Relaxed,1,0,Arlington Public Schools,NA,School meals,3 times weekly,"Mon/Wed/Fri, July 7 until school starts",11 AM - 12 PM,July 7 until school starts,"Two breakfasts and two lunches are provided, including one hot lunch for children under 18. All meals include milk, fruits or vegetables and whole grains. Pickup meals at the tables outside the school entrance.",Child under 18,1,1,1,0,1,0,0,0,1,0,1,0,0,0,0,0,0,NA,"ART 87; Metrobus 10A/B, 23A/B",School
27,Hoffman-Boston Elementary School,1415 S. Queen St.,,Arlington,VA,22204,ARLINGTON,3,StreetSegmentInterpolation,LOCATION_TYPE_STREET_ADDRESS,Meters,LinearInterpolation,1718.7273,LinearInterpolationAddressRange,StreetSegment,100,FeatureClassBased,ReturnAll,AddressRangeInterpolation,38.861538,-77.072533,Exact,1,0,Arlington Public Schools,NA,School meals,3 times weekly,"Mon/Wed/Fri, July 7 until school starts",11 AM - 12 PM,July 7 until school starts,"Two breakfasts and two lunches are provided, including one hot lunch for children under 18. All meals include milk, fruits or vegetables and whole grains. Pickup meals at the tables outside the school entrance.",Child under 18,1,1,1,0,1,0,0,0,1,0,1,0,0,0,0,0,0,NA,"ART 42; Metrobus 16A/C/E/G,",School
28,Kenmore Middle School,200 S. Carlin Springs Rd.,,Arlington,VA,22204,ARLINGTON,3,StreetSegmentInterpolation,LOCATION_TYPE_STREET_ADDRESS,Meters,LinearInterpolation,2056.96,LinearInterpolationAddressRange,StreetSegment,100,FeatureClassBased,ReturnAll,AddressRangeInterpolation,38.864498,-77.128815,Exact,1,0,Arlington Public Schools,NA,School meals,3 times weekly,"Mon/Wed/Fri, July 7 until school starts",11 AM - 12 PM,July 7 until school starts,"Two breakfasts and two lunches are provided, including one hot lunch for children under 18. All meals include milk, fruits or vegetables and whole grains. Pickup meals at the tables outside the school entrance.",Child under 18,1,1,1,0,1,0,0,0,1,0,1,0,0,0,0,0,0,NA,"Art 75; Metrobus 4B, 25B",School
29,Randolph Elementary School,1306 S. Quincy St.,,Arlington,VA,22204,ARLINGTON,3,StreetSegmentInterpolation,LOCATION_TYPE_STREET_ADDRESS,Meters,LinearInterpolation,3487.4409,LinearInterpolationAddressRange,StreetSegment,100,FeatureClassBased,ReturnAll,AddressRangeInterpolation,38.856964,-77.097961,Exact,1,0,Arlington Public Schools,NA,School meals,3 times weekly,"Mon/Wed/Fri, July 7 until school starts",11 AM - 12 PM,July 7 until school starts,"Two breakfasts and two lunches are provided, including one hot lunch for children under 18. All meals include milk, fruits or vegetables and whole grains. Pickup meals at the tables outside the school entrance.",Child under 18,1,1,1,0,1,0,0,0,1,0,1,0,0,0,0,0,0,NA,"ART 41, 45, 72, 84; Metrobus 16A/C/E/G/H, 22A/B",School
30,The Heights,1601 Wilson Blvd.,,Arlington,VA,22209,ARLINGTON,2,Parcel,LOCATION_TYPE_STREET_ADDRESS,Meters,ArealInterpolation,10382.041,ArealInterpolationGeometricCentroid,Parcel,100,FeatureClassBased,ReturnAll,ExactParcelCentroidPoint,38.894833,-77.077614,Exact,1,0,Arlington Public Schools,NA,School meals,3 times weekly,"Mon/Wed/Fri, July 7 until school starts",11 AM - 12 PM,July 7 until school starts,"Two breakfasts and two lunches are provided, including one hot lunch for children under 18. All meals include milk, fruits or vegetables and whole grains. Pickup meals at the tables outside the school entrance.",Child under 18,1,1,1,0,1,0,0,0,1,0,1,0,0,0,0,0,0,Rosslyn/Courthouse,"ART 41, 45, 55, 77; Metrobus 4B, 5A, 38B",Apartments
31,Yorktown High School,5200 Yorktown Blvd.,,Arlington,VA,22207,ARLINGTON,3,StreetSegmentInterpolation,LOCATION_TYPE_STREET_ADDRESS,Meters,LinearInterpolation,7224.0083,LinearInterpolationAddressRange,StreetSegment,97.928993,FeatureClassBased,ReturnAll,AddressRangeInterpolation,38.903469,-77.139427,Relaxed,1,0,Arlington Public Schools,NA,School meals,3 times weekly,"Mon/Wed/Fri, July 7 until school starts",11 AM - 12 PM,July 7 until school starts,"Two breakfasts and two lunches are provided, including one hot lunch for children under 18. All meals include milk, fruits or vegetables and whole grains. Pickup meals at the tables outside the school entrance.",Child under 18,1,1,1,0,1,0,0,0,1,0,1,0,0,0,0,0,0,NA,ART 52,School
32,Salvation Army Of Arlington,518 S. Glebe Rd,,Arlington,VA,22204,ARLINGTON,2,Parcel,LOCATION_TYPE_STREET_ADDRESS,Meters,ArealInterpolation,2839.9529,ArealInterpolationGeometricCentroid,Parcel,99,FeatureClassBased,ReturnAll,ExactParcelCentroidPoint,38.866489,-77.095398,Relaxed,1,0,Arlington Salvation Army,NA,Food pantry,Weekly. Participants can come once a month,Thursday,9:30-11:30 AM and 1:30-3:30 PM,Year-round,"Regular offerings include cereal, rice, beans, canned vegetables, pasta. Occasionally also have protein, eggs, and fresh produce. Registered clients can come once per month. Also provides diapers.","Bring photo ID on first visit, and fill out an application. Must live in Virginia. To receive diapers, bring an identification for the child (birth certificate, social security card, insurance card, etc.)",1,0,0,0,0,0,0,0,0,1,1,0,1,0,1,0,0,NA,"ART 41, 77; Metrobus 10B 23A/B/T",Misc
33,Welburn Square,901 N Taylor St,,Arlington,VA,22203,ARLINGTON,3,StreetSegmentInterpolation,LOCATION_TYPE_STREET_ADDRESS,Meters,LinearInterpolation,5087.0073,LinearInterpolationAddressRange,StreetSegment,96.00592,FeatureClassBased,ReturnAll,AddressRangeInterpolation,38.881142,-77.112495,Relaxed,1,1,Ballston Farmer's Market,FreshFarm,Discount groceries,Weekly,Thursday,3 - 7 PM,April 1 - Nov. 18,"All FRESHFARM markets accept SNAP/EBT, WIC and Senior FMNP checks. FRESH Match provides a dollar-for-dollar match on all federal benefits spent at market.",NA,0,0,1,0,0,0,0,0,0,1,1,0,0,0,0,0,0,NA,"ART 41, 42, 51; Metrobus 1A, 2A, 10B, 22A, 23A/B/T, 25B, 38B",Misc
34,Arlington Mill Community Center,909 S Dinwiddie St,,Arlington,VA,22204,ARLINGTON,3,StreetSegmentInterpolation,LOCATION_TYPE_STREET_ADDRESS,Meters,LinearInterpolation,2260.2388,LinearInterpolationAddressRange,StreetSegment,100,FeatureClassBased,ReturnAll,AddressRangeInterpolation,38.85667,-77.11264,Exact,1,0,Capital Area Food Bank,NA,Food pantry,Monthly,3rd Saturday of the month,0.375,Year-round,"Fresh produce and shelf stable pantry items. First come, first served.",Open to all,0,1,1,0,0,0,0,0,0,1,1,0,0,0,0,0,0,NA,"ART 41, 45, 75; Metrobus 16A/C/E/G/H, 22A",Misc
35,Women'S Club Of Arlington,700 S Buchanan St,,Arlington,VA,22204,ARLINGTON,2,Parcel,LOCATION_TYPE_STREET_ADDRESS,Meters,ArealInterpolation,2694.7407,ArealInterpolationGeometricCentroid,Parcel,99,FeatureClassBased,ReturnAll,ExactParcelCentroidPoint,38.86005,-77.110588,Relaxed,1,0,Capital Area Food Bank,Communities in Schools of Northern Virginia,Food pantry,Monthly,2nd Thursday of the month,3 - 5 PM,Year-round,"Fresh produce and shelf stable pantry items. First come, first served.",Open to all,0,1,1,0,0,0,0,0,0,1,1,NA,0,0,0,0,0,NA,"ART 41, 45, 75; Metrobus 16A/C/E/G/H, 22A",Misc
36,Joint Base Myer-Henderson Hall Community Center,228 McNair Rd,,Arlington,VA,22211,ARLINGTON,3,StreetSegmentInterpolation,LOCATION_TYPE_STREET_ADDRESS,Meters,LinearInterpolation,11603.082,LinearInterpolationAddressRange,StreetSegment,100,FeatureClassBased,ReturnAll,AddressRangeInterpolation,38.879772,-77.080238,Exact,1,0,Capital Area Food Bank,USO,Food pantry,Monthly,3rd Thursday of the Month,"11:30 AM-1:30 PM11:30 AM - 12:30 PM Active Duty12:30 - 1:30 PM Retirees, veterans, and families",Year-round,Fresh produce and shelf stable pantry items,"Active Duty military, veterans and their families. Must show ID to get on post.",1,0,1,0,0,0,0,0,0,1,1,0,0,0,0,0,0,NA,"ART 42, 47 (across Rt. 50)",Misc
37,Cathedral Of St. Thomas More,3901 Cathedral Ln,,Arlington,VA,22203,ARLINGTON,3,StreetSegmentInterpolation,LOCATION_TYPE_STREET_ADDRESS,Meters,LinearInterpolation,6734.0107,LinearInterpolationAddressRange,StreetSegment,97.928993,FeatureClassBased,ReturnAll,AddressRangeInterpolation,38.870781,-77.102669,Relaxed,1,0,Capital Area Food Bank,NA,Food pantry,Monthly,3rd Thursday of the Month,5 - 7 PM,Year-round,"Fresh produce and shelf stable pantry items. First come, first served.",Open to all,0,1,1,0,0,0,0,0,0,1,1,0,0,0,0,0,0,NA,"ART 41, 72; Metrobus 4B, 10B, 22A, 23A/B/T",Church/Mosque
38,Mt. Olive Baptist Church,1601 13th Rd. S,,Arlington,VA,22204,ARLINGTON,3,StreetSegmentInterpolation,LOCATION_TYPE_STREET_ADDRESS,Meters,LinearInterpolation,2410.9075,LinearInterpolationAddressRange,StreetSegment,100,FeatureClassBased,ReturnAll,AddressRangeInterpolation,38.86256,-77.070778,Exact,1,0,Capital Area Food Bank,NA,Food pantry,Monthly,3rd Saturday of the month,10 AM - 12 PM,Year-round,"Fresh produce and shelf stable pantry items. First come, first served.",Open to all,0,1,1,0,0,0,0,0,0,1,1,0,0,0,0,0,0,NA,"ART 42; Metrobus 16A/C/E/G/H,",Church/Mosque
39,Lockwood Elmwood House Apartments,600 N Madison St,,Arlington,VA,22203,ARLINGTON,3,StreetSegmentInterpolation,LOCATION_TYPE_STREET_ADDRESS,Meters,LinearInterpolation,6824.7231,LinearInterpolationAddressRange,StreetSegment,100,FeatureClassBased,ReturnAll,AddressRangeInterpolation,38.869762,-77.141731,Exact,1,0,Senior Brown Bag Program by Capital Area Food Bank,NA,Food pantry,Monthly,3rd Tuesday of the month,NA,Year-round,"Senior Brown Bag Program - A 9-10 lb bag of dry goods (canned fruits/vegetables, grains, canned protein), a fresh produce item and a cold or frozen protein item (eggs, frozen meat or fish) when available.Distributes USDA commodities through the TEFAP pr",Open to senior residents of this apartment building that are income eligible.,1,0,0,1,0,1,1,0,0,1,1,0,0,0,0,0,0,NA,"Metrobus 1A, 4B",Apartments
40,Colonial Village West,2111 Key Blvd,,Arlington,VA,22201,ARLINGTON,3,StreetSegmentInterpolation,LOCATION_TYPE_STREET_ADDRESS,Meters,LinearInterpolation,3028.6331,LinearInterpolationAddressRange,StreetSegment,97.928993,FeatureClassBased,ReturnAll,AddressRangeInterpolation,38.893799,-77.084938,Relaxed,1,0,Senior Brown Bag Program by Capital Area Food Bank,NA,Food pantry,Monthly,3rd Wednesday of the month,NA,Year-round,"Senior Brown Bag Program - A 9-10 lb bag of dry goods (canned fruits/vegetables, grains, canned protein), a fresh produce item and a cold or frozen protein item (eggs, frozen meat or fish) when available.Distributes USDA commodities through the TEFAP pr",Open to senior residents of this apartment building that are income eligible.,0,0,0,0,0,0,0,0,0,0,0,0,0,0,0,0,0,Courthouse,"ART 55, Metrobus 4B, 38B",Apartments
41,Hunters Park Senior Apartments (Ahc),2021 N. Nelson St,,Arlington,VA,22207,ARLINGTON,3,StreetSegmentInterpolation,LOCATION_TYPE_STREET_ADDRESS,Meters,LinearInterpolation,5295.7476,LinearInterpolationAddressRange,StreetSegment,100,FeatureClassBased,ReturnAll,AddressRangeInterpolation,38.895271,-77.105171,Exact,1,0,Senior Brown Bag Program by Capital Area Food Bank,NA,Food pantry,Monthly,3rd Wednesday of the month,NA,Year-round,"Senior Brown Bag Program - A 9-10 lb bag of dry goods (canned fruits/vegetables, grains, canned protein), a fresh produce item and a cold or frozen protein item (eggs, frozen meat or fish) when available.Distributes USDA commodities through the TEFAP pr",Open to senior residents of this apartment building that are income eligible.,0,0,0,0,0,0,0,0,0,0,0,0,0,0,0,0,0,NA,ART 55,Apartments
42,Harvey Hall Apartments,860 S Greenbrier St,,Arlington,VA,22204,ARLINGTON,2,Parcel,LOCATION_TYPE_STREET_ADDRESS,Meters,ArealInterpolation,560.57361,ArealInterpolationGeometricCentroid,Parcel,95.325447,FeatureClassBased,ReturnAll,ExactParcelCentroidPoint,38.878029,-77.125893,Relaxed,1,0,Senior Brown Bag Program by Capital Area Food Bank,NA,Food pantry,Monthly,4th Wednesday of the month,NA,Year-round,"Senior Brown Bag Program - A 9-10 lb bag of dry goods (canned fruits/vegetables, grains, canned protein), a fresh produce item and a cold or frozen protein item (eggs, frozen meat or fish) when available.Distributes USDA commodities through the TEFAP pr",Open to senior residents of this apartment building that are income eligible.,0,0,0,0,0,0,0,0,0,0,0,0,0,0,0,0,0,NA,"ART 41, 45; Metrobus 16A/C/E/G/H, 25B, 28A",Apartments
43,The Shelton (Ahc),3215 24th St S,,Arlington,VA,22206,ARLINGTON,3,StreetSegmentInterpolation,LOCATION_TYPE_STREET_ADDRESS,Meters,LinearInterpolation,1601.3018,LinearInterpolationAddressRange,StreetSegment,100,FeatureClassBased,ReturnAll,AddressRangeInterpolation,38.848637,-77.08419,Exact,1,0,Senior Brown Bag Program by Capital Area Food Bank,NA,Food pantry,Monthly,4th Wednesday of the month,NA,Year-round,"Senior Brown Bag Program - A 9-10 lb bag of dry goods (canned fruits/vegetables, grains, canned protein), a fresh produce item and a cold or frozen protein item (eggs, frozen meat or fish) when available.Distributes USDA commodities through the TEFAP pr",Open to senior residents of this apartment building that are income eligible.,0,0,0,0,0,0,0,0,0,0,0,0,0,0,0,0,0,NA,"ART 75, 77, 84, 87; Metrobus 10B, 23A/B/T",Apartments
44,Claremont Elementary School,4700 S Chesterfield Rd,,Arlington,VA,22206,ARLINGTON,2,Parcel,LOCATION_TYPE_STREET_ADDRESS,Meters,ArealInterpolation,59887.516,ArealInterpolationGeometricCentroid,Parcel,99,FeatureClassBased,ReturnAll,ExactParcelCentroidPoint,38.847775,-77.105263,Relaxed,1,0,Claremont Elementary School PTA,NA,Food pantry,Once every 3 weeks,Monday,4 - 5:30 PM,Year-round,NA,A child enrolled at Claremont Immersion School,1,1,0,1,1,0,0,0,0,1,0,NA,0,0,0,0,0,NA,"ART 72, 75; Metrobus 22A",School
45,Gilliam Place,918 S Lincoln St,,Arlington,VA,22204,ARLINGTON,3,StreetSegmentInterpolation,LOCATION_TYPE_STREET_ADDRESS,Meters,LinearInterpolation,3324.3198,LinearInterpolationAddressRange,StreetSegment,100,FeatureClassBased,ReturnAll,AddressRangeInterpolation,38.86208,-77.093399,Exact,1,0,CPRO,Arlington Presbyterian Church,Food pantry,Weekly,NA,NA,April-October,NA,NA,1,0,0,1,0,0,0,0,0,1,1,0,0,0,0,0,0,NA,"ART 41, 45; Metrobus 16E/G/H, 23A/B/T",Apartments
46,Fillmore Shopping Center Parking Lot,2705 Columbia Pike,,Arlington,VA,22204,ARLINGTON,3,StreetSegmentInterpolation,LOCATION_TYPE_STREET_ADDRESS,Meters,LinearInterpolation,2833.1228,LinearInterpolationAddressRange,StreetSegment,97.928993,FeatureClassBased,ReturnAll,AddressRangeInterpolation,38.862965,-77.085815,Relaxed,1,1,Columbia Pike Farmer's Market,CPRO,Discount groceries,Weekly,Sunday,8:30 - 11:30 AM,Year-round,The Columbia Pike Farmers Market partners with the INOVA Health Foundation to provide the SNAP Double Dollars Program. Shoppers using their Viriginia EBT card can receive up to $20 in matching funds for use at the market.,NA,0,1,1,0,0,0,0,0,0,1,1,0,0,0,0,0,0,NA,"ART 41, 42, 45, 77; Metrobus 16A/C/E/G, 23A/B/T",Misc
47,Crystal City Courtyard Green,2011 Crystal Dr,,Arlington,VA,22202,ARLINGTON,2,Parcel,LOCATION_TYPE_STREET_ADDRESS,Meters,ArealInterpolation,12749.59,ArealInterpolationGeometricCentroid,Parcel,100,FeatureClassBased,ReturnAll,ExactParcelCentroidPoint,38.855671,-77.04866,Exact,1,1,Crystal City Farmer's Market,FreshFarm,Discount groceries,Weekly,Tuesday,3 - 7 PM,April 6 - Nov. 23,"All FRESHFARM markets accept SNAP/EBT, WIC and Senior FMNP checks. FRESH Match provides a dollar-for-dollar match on all federal benefits spent at market.",NA,0,1,1,0,0,0,0,0,0,1,1,0,0,0,0,0,0,Crystal City,"ART 43; Metrobus 10A, 23A/B",Misc
48,Dar Al-Hijrah Islamic Center,3159 Row St.,,Arlington,VA,22044,ARLINGTON,2,Parcel,LOCATION_TYPE_STREET_ADDRESS,Meters,ArealInterpolation,13206.809,ArealInterpolationGeometricCentroid,Parcel,96,FeatureClassBased,ReturnAll,ExactParcelCentroidPoint,38.86166,-77.146461,Relaxed,1,0,Dar Al-Hijrah Islamic Center,NA,Food pantry,Weekly,Thursday,9 - 11 AM,Year-round,"Supplemental groceries usually including bread, produce, shelf-stable food items and halal meat.",Open to All,0,1,0,0,0,0,0,1,0,1,1,NA,0,0,1,1,0,NA,"Metrobus 1A, 4B, 28A",Misc
49,Columbia Knoll Condos,750 S Dickerson St,,Arlington,VA,22204,ARLINGTON,3,StreetSegmentInterpolation,LOCATION_TYPE_STREET_ADDRESS,Meters,LinearInterpolation,1453.1206,LinearInterpolationAddressRange,StreetSegment,100,FeatureClassBased,ReturnAll,AddressRangeInterpolation,38.858624,-77.114998,Exact,1,0,Food For Others,NA,Food pantry,Twice weekly,"Monday, Tuesday",0.75,Year-round,Produce donated from grocery stores and shelf stable pantry items.,Open to all,0,1,1,0,0,0,0,0,0,1,1,0,0,0,0,0,0,NA,"ART 41, 45, 75; Metrobus 16A/C/E/G/H, 22A",Apartments
50,Barcroft Recycling Center Parking Lot,Corner of Columbia Pike & Four Mile Run Dr/South Buchanan St.,,Arlington,VA,22204,ARLINGTON,9,AddressZIPCentroid,LOCATION_TYPE_STREET_ADDRESS,Meters,ArealInterpolation,10647709,ArealInterpolationGeometricCentroid,USPSZip,60,FeatureClassBased,ReturnAll,USPSZipAreaCentroid,38.859707,-77.095604,Relaxed;Soundex,1,0,Food For Others,NA,Food pantry,Twice weekly,"Monday, Tuesday",0.770833333,Year-round,Produce donated from grocery stores and shelf stable pantry items.,Open to all,0,1,1,0,0,0,0,0,0,1,1,0,0,0,0,0,0,NA,"ART 41, 45; Metrobus 16A/C/E/G/H, 22A",Misc
51,Gunston Middle School (Entrance Near Soccer Field),2700 S Lang St,,Arlington,VA,22206,ARLINGTON,2,Parcel,LOCATION_TYPE_STREET_ADDRESS,Meters,ArealInterpolation,79579.867,ArealInterpolationGeometricCentroid,Parcel,99,FeatureClassBased,ReturnAll,ExactParcelCentroidPoint,38.847958,-77.068733,Relaxed,1,0,Food For Others,NA,Food pantry,Weekly,Tuesday,0.75,Year-round,Produce donated from grocery stores and shelf stable pantry items.,Open to all,0,1,1,0,0,0,0,0,0,1,1,0,0,0,0,0,0,NA,"ART 87; Metrobus 10A/B, 23A/B",School
52,Gajin Ramen Shop,3800 Lee Highway,,Arlington,VA,22207,ARLINGTON,3,StreetSegmentInterpolation,LOCATION_TYPE_STREET_ADDRESS,Meters,LinearInterpolation,1552.5962,LinearInterpolationAddressRange,StreetSegment,100,FeatureClassBased,ReturnAll,AddressRangeInterpolation,38.896339,-77.106499,Exact,1,0,Gajin Ramen Shop,NA,Prepared Meals,Upon Request,Upon Request,N/A,Year-round,Hot vegetable ramen soup available for pickup for free for elderly who have limited resources.,Elderly in need.,1,0,1,0,0,1,0,0,1,0,0,0,0,0,0,0,0,NA,ART 55,Misc
53,Good Company Doughnuts & Caf,672 N. Glebe Road,,Arlington,VA,22203,ARLINGTON,3,StreetSegmentInterpolation,LOCATION_TYPE_STREET_ADDRESS,Meters,LinearInterpolation,3305.2668,LinearInterpolationAddressRange,StreetSegment,100,FeatureClassBased,ReturnAll,AddressRangeInterpolation,38.878494,-77.111671,Exact,1,0,Good Company Doughnuts & Caf,NA,Prepared Meals,Upon Request,Upon Request,N/A,Year-round,Free lunches for school-aged kids in need and free delivery for seniors.,School aged child or elderly,1,1,1,0,1,1,0,0,1,0,0,0,0,0,0,0,0,Ballston,"ART 41, 42, 51, 72, 75; Metrobus 1A, 2A, 10B, 22A, 23B/T, 25B, 38B",Misc
54,Baitul Mukarram Masjid,2116 South Nelson Street,,Arlington,VA,22204,ARLINGTON,2,Parcel,LOCATION_TYPE_STREET_ADDRESS,Meters,ArealInterpolation,733.36609,ArealInterpolationGeometricCentroid,Parcel,99,FeatureClassBased,ReturnAll,ExactParcelCentroidPoint,38.849579,-77.090553,Relaxed,1,0,ICNA Relief,NA,Food pantry,Monthly,2nd Friday of the month,1 - 2 PM,Year-round,NA,Open to all,0,1,0,0,0,0,0,0,0,1,0,NA,0,0,0,0,0,NA,"ART 77, 84; Metrobus 10B, 23A/B/T",Church/Mosque
55,Dhic,824 S. Quincy St.,,Arlington,VA,22204,ARLINGTON,2,Parcel,LOCATION_TYPE_STREET_ADDRESS,Meters,ArealInterpolation,547.87158,ArealInterpolationGeometricCentroid,Parcel,99,FeatureClassBased,ReturnAll,ExactParcelCentroidPoint,38.861706,-77.09996,Relaxed,1,0,ICNA Relief,NA,Food pantry,Monthly,1st Friday of the month,1 - 2 PM,Year-round,NA,Open to all,0,1,0,0,0,0,0,0,0,1,0,NA,0,0,0,0,0,NA,"ART 41, 45, 72; Metrobus 16A/C/E/G/H, 22A, 23A/B/T",Church/Mosque
56,Na,2912 Woodlawn Trail,,Arlington,VA,22306,ARLINGTON,2,Parcel,LOCATION_TYPE_STREET_ADDRESS,Meters,ArealInterpolation,1897.3732,ArealInterpolationGeometricCentroid,Parcel,96,FeatureClassBased,ReturnAll,ExactParcelCentroidPoint,38.751759,-77.082214,Relaxed,1,0,ICNA Relief,NA,Food pantry,Twice Monthly,Usually 1st & 3rd Thursday,2pm,Year-round,NA,Open to all,0,1,0,0,0,0,0,0,0,1,0,NA,0,0,0,0,0,NOT ARLINGTON,NA,Misc
57,Harvey Hall,860 S Greenbrier St,,Arlington,VA,22204,ARLINGTON,2,Parcel,LOCATION_TYPE_STREET_ADDRESS,Meters,ArealInterpolation,560.57361,ArealInterpolationGeometricCentroid,Parcel,95.325447,FeatureClassBased,ReturnAll,ExactParcelCentroidPoint,38.878029,-77.125893,Relaxed,1,0,Kenmore Wednesday Moms,NA,Food pantry,Monthly,Last Friday of the month,By appointment,Year-round,"Regular offerings include rice, beans, corn flour, and oil.",Call Janeth to get added to the list.,0,1,0,0,0,0,0,1,0,1,0,NA,0,0,0,0,0,NA,"ART 41, 45; Metrobus 16A/C/E/G/H, 25B, 28A",Apartments
58,Central Library,1015 N. Quincy St,,Arlington,VA,22201,ARLINGTON,2,Parcel,LOCATION_TYPE_STREET_ADDRESS,Meters,ArealInterpolation,7421.0908,ArealInterpolationGeometricCentroid,Parcel,100,FeatureClassBased,ReturnAll,ExactParcelCentroidPoint,38.883434,-77.107269,Exact,1,0,Little Free Pantry,NA,Food pantry,NA,NA,NA,Year-round,Container outside Central Library is stocked with shelf-stable foods. Take what you need.,None. Open to all,0,1,1,0,0,0,0,0,0,1,0,0,0,0,0,0,0,NA,"ART 42, 51, 52, 72, 75; Metrobus 1A, 2A, 10B, 22A, 23A/B/T, 25B 38B",Misc
59,Lomax Ame Zion Church,2704 24th Rd S,,Arlington,VA,22206,ARLINGTON,3,StreetSegmentInterpolation,LOCATION_TYPE_STREET_ADDRESS,Meters,LinearInterpolation,7685.5771,LinearInterpolationAddressRange,StreetSegment,100,FeatureClassBased,ReturnAll,AddressRangeInterpolation,38.847946,-77.081642,Exact,1,0,LOMAX AME Zion Church,NA,Food pantry,By Appointment,By Appointment,By Appointment,Year-round,Shelf stable food items.,Open to all,0,1,1,0,0,0,0,0,0,1,0,0,0,0,0,0,0,NA,"ART 75, 84, 87/A/P; Metrobus 10B, 23A/B/T",Church/Mosque
60,Our Lady Queen Of Peace Catholic Church,2700 19th St S,,Arlington,VA,22204,ARLINGTON,3,StreetSegmentInterpolation,LOCATION_TYPE_STREET_ADDRESS,Meters,LinearInterpolation,3420.8645,LinearInterpolationAddressRange,StreetSegment,100,FeatureClassBased,ReturnAll,AddressRangeInterpolation,38.854359,-77.082886,Exact,1,0,Our Lady Queen of Peace Catholic Church,NA,Food pantry,Weekly,Wednesday,8:30-11:30 AM,Year-round,"Regular offerings include rice, beans, pasta, pasta sauce, mac & cheese. Alternating weeks also provides oil and eggs or corn flour (maseca) and tuna. Fresh produce provided when available. Also have Gabriel Program w/ services for pregnant/new parents an",Open to all,0,0,1,0,0,0,0,1,0,1,1,NA,1,0,1,1,1,NA,"ART 77, 84; Metrobus 10B, 23A/B/T",Church/Mosque
61,Randolph Elementary School,1306 S Quincy St,,Arlington,VA,22204,ARLINGTON,3,StreetSegmentInterpolation,LOCATION_TYPE_STREET_ADDRESS,Meters,LinearInterpolation,3487.4409,LinearInterpolationAddressRange,StreetSegment,100,FeatureClassBased,ReturnAll,AddressRangeInterpolation,38.856964,-77.097961,Exact,1,0,Randolph Elementary School PTA,NA,Food pantry,Once every 3 weeks,Friday,4 - 6 PM,"July 9, July 30, August 20","Regular offerings include rice, beans, pasta, pasta sauce, tortillas, taco seasoning, canned vegetables or fruit, instant oatmeal, granola bars, canned tuna. Additional items, including fresh produce also provided and vary by week.",Child enrolled at Randolph ES,1,1,0,1,1,0,0,0,0,1,0,NA,0,0,0,0,0,NA,"ART 41, 45, 72, 84; Metrobus 16A/C/E/G/H, 22A/B",School
62,Gates Of Ballston Apartments (Ahc),4108 4th St N,,Arlington,VA,22204,ARLINGTON,3,StreetSegmentInterpolation,LOCATION_TYPE_STREET_ADDRESS,Meters,LinearInterpolation,7054.6279,LinearInterpolationAddressRange,StreetSegment,96.00592,FeatureClassBased,ReturnAll,AddressRangeInterpolation,38.875378,-77.107491,Relaxed,1,0,Real Food For Kids,AHC,Prepared Meals,Weekly,Tuesday,0.6875,Year-round,Plant-based meals for the whole family made by restaurant chefs.,Open to AHC residents at this location. Contact AHC resident services to enroll.,1,1,0,1,0,0,0,1,1,0,0,NA,0,0,0,0,0,NA,"ART 41, 42, 72; Metrobus 1A, 4B, 10B, 22A, 23B/T, 25B",Apartments
63,The Shelton (Ahc),3215 24th St S,,Arlington,VA,22206,ARLINGTON,3,StreetSegmentInterpolation,LOCATION_TYPE_STREET_ADDRESS,Meters,LinearInterpolation,1601.3018,LinearInterpolationAddressRange,StreetSegment,100,FeatureClassBased,ReturnAll,AddressRangeInterpolation,38.848637,-77.08419,Exact,1,0,Real Food For Kids,AHC,Prepared Meals,Weekly,Thursday,0.6875,Year-round,Plant-based meals for the whole family made by restaurant chefs.,Open to AHC residents at this location. Contact AHC resident services to enroll.,1,1,0,1,0,0,0,1,1,0,0,NA,0,0,0,0,0,NA,"ART 75, 77, 84, 87; Metrobus 10B, 23A/B/T",Apartments
64,Virginia Gardens (Ahc),1718 S Taylor St,,Arlington,VA,22204,ARLINGTON,3,StreetSegmentInterpolation,LOCATION_TYPE_STREET_ADDRESS,Meters,LinearInterpolation,8730.9463,LinearInterpolationAddressRange,StreetSegment,100,FeatureClassBased,ReturnAll,AddressRangeInterpolation,38.851681,-77.100327,Exact,1,0,Real Food For Kids,AHC,Prepared Meals,Weekly,Thursday,0.708333333,Year-round,Plant-based meals for the whole family made by restaurant chefs.,Open to AHC residents at this location. Contact AHC resident services to enroll.,1,1,0,1,0,0,0,1,1,0,0,NA,0,0,0,0,0,NA,"ART 45, 72, 77; Metrobus 22A",Apartments
65,The Serrano (Ahc),5535 Columbia Pike,,Arlington,VA,22204,ARLINGTON,3,StreetSegmentInterpolation,LOCATION_TYPE_STREET_ADDRESS,Meters,LinearInterpolation,5695.4551,LinearInterpolationAddressRange,StreetSegment,100,FeatureClassBased,ReturnAll,AddressRangeInterpolation,38.853752,-77.119362,Exact,1,0,Real Food For Kids,AHC,Prepared Meals,Weekly,Tuesday,0.708333333,Year-round,Plant-based meals for the whole family made by restaurant chefs.,Open to AHC residents at this location. Contact AHC resident services to enroll.,1,1,0,1,0,0,0,1,1,0,0,NA,0,0,0,0,0,NA,"ART 41, 45, 75; Metrobus 16A/C/E/G/H, 25B, 28A",Apartments
66,Virginia Hospital Center Pediatrics,"3401 Columbia Pike, Suite 200",,Arlington,VA,22204,ARLINGTON,2,Parcel,LOCATION_TYPE_STREET_ADDRESS,Meters,ArealInterpolation,5685.7485,ArealInterpolationGeometricCentroid,Parcel,99,FeatureClassBased,ReturnAll,ExactParcelCentroidPoint,38.861767,-77.092545,Relaxed,1,0,Real Food For Kids,Virginia Hospital Center Pediatric Clinic,Prepared Meals,Weekly,Tuesday,0.708333333,Year-round,Plant-based meals for the whole family made by restaurant chefs.,"Open to VHC Pediatrics clients. Contact provider, Jenny Reyes or Diana Rodriguez to enroll.",1,1,0,1,1,0,0,1,1,0,0,NA,0,0,0,0,0,NA,"ART 41, 45, 75; Metrobus 10B, 16A/C/E/G/H, 23A/B/T",Misc
67,Abingdon Elementary School,3035 South Abingdon St.,,Arlington,VA,22206,ARLINGTON,2,Parcel,LOCATION_TYPE_STREET_ADDRESS,Meters,ArealInterpolation,43251.676,ArealInterpolationGeometricCentroid,Parcel,99,FeatureClassBased,ReturnAll,ExactParcelCentroidPoint,38.839653,-77.096222,Relaxed,1,0,Real Food For Kids,Abingdon Elementary School PTA,Prepared Meals,Weekly,Wednesday,0.677083333,Year-round,Plant-based meals for the whole family made by restaurant chefs.,"Open to Abingdon Elementary School families. Contact Abingdon school social worker, Margarita Zwisler, to sign up.",1,1,0,1,1,0,0,1,1,0,0,NA,0,0,0,0,0,NA,"ART 72, 77; Metrobus 7A/F/Y, 22A",School
68,Abingdon Elementary School,3035 South Abingdon St.,,Arlington,VA,22206,ARLINGTON,2,Parcel,LOCATION_TYPE_STREET_ADDRESS,Meters,ArealInterpolation,43251.676,ArealInterpolationGeometricCentroid,Parcel,99,FeatureClassBased,ReturnAll,ExactParcelCentroidPoint,38.839653,-77.096222,Relaxed,1,0,Real Food For Kids,Abingdon Elementary School PTA,Meal Kits,Weekly,Wednesday,0.677083333,Year-round,Meal kits with fresh produce and recipes that are enough to make 16 meals,"Open to Abingdon Elementary School families. Contact Abingdon school social worker, Margarita Zwisler, to sign up.",1,1,0,1,1,0,0,1,0,0,0,NA,0,0,0,0,0,NA,NA,School
69,Carlin Springs Elementary Schools,5995 5th Rd S,,Arlington,VA,22204,ARLINGTON,3,StreetSegmentInterpolation,LOCATION_TYPE_STREET_ADDRESS,Meters,LinearInterpolation,1743.4603,LinearInterpolationAddressRange,StreetSegment,100,FeatureClassBased,ReturnAll,AddressRangeInterpolation,38.86182,-77.131783,Exact,1,0,Real Food For Kids,Carlin Springs Elementary Schools,Meal Kits,Bi-weekly,Wednesday,0.708333333,Year-round,Meal kits with fresh produce and recipes that are enough to make 16 meals,Open to CSES famiiles only. Contact Carol Sabatino for more information,1,1,0,1,1,0,0,1,0,0,0,NA,0,0,0,0,0,NA,NA,School
70,Colonial Village Apartments,48 N. 18th Street,,Arlington,VA,22201,ARLINGTON,9,AddressZIPCentroid,LOCATION_TYPE_STREET_ADDRESS,Meters,ArealInterpolation,6058556.5,ArealInterpolationGeometricCentroid,USPSZip,60,FeatureClassBased,ReturnAll,USPSZipAreaCentroid,38.887344,-77.098839,Relaxed;Soundex,1,0,Real Food For Kids,Colonial Village Apartments,Prepared Meals,Weekly,Tuesday,0.625,Year-round,Plant-based meals for the whole family made by restaurant chefs.,Open to Colonial Village families only. Contact Abby Gurara for more information,1,1,0,1,1,0,0,1,1,0,0,NA,0,0,0,0,0,NA,NA,Apartments
71,Central Place Plaza,1800 N. Lynn St,,Arlington,VA,22209,ARLINGTON,2,Parcel,LOCATION_TYPE_STREET_ADDRESS,Meters,ArealInterpolation,1189.7755,ArealInterpolationGeometricCentroid,Parcel,95.325447,FeatureClassBased,ReturnAll,ExactParcelCentroidPoint,38.856625,-77.067215,Relaxed,1,1,Rosslyn Farmer's Market,FreshFarm,Discount groceries,Weekly,Wednesday,3 - 7 PM,May 5 - Oct. 27,"All FRESHFARM markets accept SNAP/EBT, WIC and Senior FMNP checks. FRESH Match provides a dollar-for-dollar match on all federal benefits spent at market.",NA,0,1,1,0,0,0,0,0,0,1,1,0,0,0,0,0,0,Rosslyn,"ART 43, 45, 55; Metrobus 4B, 5A, 38B",Misc
72,Macedonia Baptist Church,3412 South 22nd St.,,Arlington,VA,22204,ARLINGTON,3,StreetSegmentInterpolation,LOCATION_TYPE_STREET_ADDRESS,Meters,LinearInterpolation,1881.8625,LinearInterpolationAddressRange,StreetSegment,99.349113,FeatureClassBased,ReturnAll,AddressRangeInterpolation,38.849884,-77.085304,Relaxed,1,1,SHARE Food Network,NA,Discount groceries,Monthly,4th Saturday of the month,0.333333333,Year-round,Monthlyvalue packagescost $22 and include $40-$45 worth of basic and healthy groceries; always four to six pounds of frozen proteins and eight to 12 poundsof fresh fruits and vegetables. Additional specials are also available. SNAP can be used to pa,Open to all. Email or call Darlene Gilbert to sign up.,0,1,0,0,0,0,0,0,0,1,1,0,0,0,0,0,0,NA,"ART 77, 84, 87; Metrobus 10B, 23A/B/T",Church/Mosque
73,Lomax Ame Zion Church,2704 24th Rd S,,Arlington,VA,22206,ARLINGTON,3,StreetSegmentInterpolation,LOCATION_TYPE_STREET_ADDRESS,Meters,LinearInterpolation,7685.5771,LinearInterpolationAddressRange,StreetSegment,100,FeatureClassBased,ReturnAll,AddressRangeInterpolation,38.847946,-77.081642,Exact,1,1,SHARE Food Network,NA,Discount groceries,Monthly,4th Saturday of the month,11:15 AM - 12:30 PM,Year-round,Monthlyvalue packagescost $22 and include $40-$45 worth of basic and healthy groceries; always four to six pounds of frozen proteins and eight to 12 poundsof fresh fruits and vegetables. Additional specials are also available. SNAP can be used to pa,Open to all.,0,1,0,0,0,0,0,0,0,1,1,0,0,0,0,0,0,NA,"ART 75, 84, 87/A/P; Metrobus 10B, 23A/B/T",Church/Mosque
74,Langston Brown Community Center,2121 N. Culpeper Street,,Arlington,VA,22207,ARLINGTON,3,StreetSegmentInterpolation,LOCATION_TYPE_STREET_ADDRESS,Meters,LinearInterpolation,3519.4824,LinearInterpolationAddressRange,StreetSegment,100,FeatureClassBased,ReturnAll,AddressRangeInterpolation,38.895588,-77.126564,Exact,1,0,Social 60+ Caf,Department of Parks & Rec,Prepared meals,Daily,Tuesday - Friday,NA,Year-round,"Designed to help older individuals remain independent and involved in their community by providing meals, transportation and related nutrition services.","Arlington County residents age 60 years or older and their spouses, regardless of income.",1,1,0,0,0,1,0,0,1,0,0,0,0,0,0,0,0,NA,"ART 51, 52, 55, 72; Metrobus 23A/T",Misc
75,St. Anthony Of Padua Catholic Church,3305 Glen Carlyn Rd,,Arlington,VA,22041,ARLINGTON,2,Parcel,LOCATION_TYPE_STREET_ADDRESS,Meters,ArealInterpolation,20225.203,ArealInterpolationGeometricCentroid,Parcel,96,FeatureClassBased,ReturnAll,ExactParcelCentroidPoint,38.856659,-77.13868,Relaxed,1,0,St. Anthony of Padua Catholic Church,NA,Food pantry,Twice weekly,Monday & Wednesday,10 AM - 2 PM,Year-round,"Fresh veggies & fruits, meat or fish, canned food, cereals, pastries, bread, rice and beans. Monthly.",NA,0,1,0,0,0,0,0,0,0,1,1,NA,1,0,0,0,0,NA,"Metrobus 16 C/E, 28A",Church/Mosque
76,St. Charles Borromeo Catholic Church,3304 Washington Blvd,,Arlington,VA,22201,ARLINGTON,2,Parcel,LOCATION_TYPE_STREET_ADDRESS,Meters,ArealInterpolation,7683.6499,ArealInterpolationGeometricCentroid,Parcel,100,FeatureClassBased,ReturnAll,ExactParcelCentroidPoint,38.885559,-77.099297,Exact,1,0,St. Charles Borromeo Catholic Church,NA,Food pantry,Weekly,Tuesday,10 AM - 12 PM,Year-round,Shelf-stable food items.,NA,0,1,1,0,0,0,0,1,0,1,0,NA,0,0,0,0,0,Clarendon,"ART 41, 42, 77; Metrobus 38B",Church/Mosque
77,St. George'S Episcopal Church,915 N. Oakland St,,Arlington,VA,22203,ARLINGTON,3,StreetSegmentInterpolation,LOCATION_TYPE_STREET_ADDRESS,Meters,LinearInterpolation,2252.5725,LinearInterpolationAddressRange,StreetSegment,100,FeatureClassBased,ReturnAll,AddressRangeInterpolation,38.882023,-77.104446,Exact,1,0,St. George's Episcopal Church,NA,Food pantry,Twice weekly,Monday & Thursday,12 - 1 PM,Year-round,Shelf-stable food items. Toiletries available based on availability.,NA,0,1,1,0,0,0,0,0,0,1,0,0,0,0,0,0,0,Virginia Square,"ART 41, 42, 51, 75; Metrobus 1A, 2A, 10B, 22A, 23A/B/T, 25B , 38B",Church/Mosque
