ObjectId,Store_Name,Address,Address_Line__2,City,State,Zip5,Zip4,County,AUTO_UNIQUE_ID_2021-09-27_fhernandez_UI_SNAP_Locations,Source,TimeTaken,UpdatedGeocoding,Version,ErrorMessage,TransactionId,naaccrQualCode,naaccrQualType,FeatureMatchingResultType,MatchedLocationType,RegionSizeUnits,InterpolationType,RegionSize,InterpolationSubType,FeatureMatchingGeographyType,MatchScore,FeatureMatchingHierarchy,TieHandlingStrategyType,FeatureMatchingResultTypeTieBreakingNotes,GeocodeQualityType,FeatureMatchingHierarchyNotes,FeatureMatchingResultTypeNotes,FeatureMatchingResultCount,Latitude,Longitude,MatchType
303,A Plus 40056H,11854 Sunrise Valley Dr,,Reston,VA,20191,3302,FAIRFAX,1,USCGeocoder,31.2451,1,4.1,,,2,Parcel,Success,LOCATION_TYPE_STREET_ADDRESS,Meters,ArealInterpolation,7610.367798,ArealInterpolationGeometricCentroid,Parcel,100,FeatureClassBased,ReturnAll,,ExactParcelCentroidPoint,,,1,38.94714198,-77.35718119,Exact
2888,7-Eleven Inc F 39737A,4154 S 4 Mile Run Dr,,Arlington,VA,22206,1188,ARLINGTON,2,USCGeocoder,250.0125,1,4.1,,,9,AddressZIPCentroid,Success,LOCATION_TYPE_STREET_ADDRESS,Meters,ArealInterpolation,5315048.907,ArealInterpolationGeometricCentroid,USPSZip,60,FeatureClassBased,ReturnAll,,USPSZipAreaCentroid,,,1,38.841046,-77.092448,Relaxed;Soundex
3186,Aplus 40046H,5135 Westfields Blvd,,Centreville,VA,20120,4367,FAIRFAX,3,USCGeocoder,46.8769,1,4.1,,,3,StreetSegmentInterpolation,Success,LOCATION_TYPE_STREET_ADDRESS,Meters,LinearInterpolation,6952.653775,LinearInterpolationAddressRange,StreetSegment,100,FeatureClassBased,ReturnAll,,AddressRangeInterpolation,,,1,38.86742681,-77.44841362,Exact
3466,Super A Market,2800 Graham Rd,,Falls Church,VA,22042,1638,FAIRFAX,4,USCGeocoder,31.2491,1,4.1,,,3,StreetSegmentInterpolation,Success,LOCATION_TYPE_STREET_ADDRESS,Meters,LinearInterpolation,7049.943576,LinearInterpolationAddressRange,StreetSegment,98.99408284,FeatureClassBased,ReturnAll,,AddressRangeInterpolation,,,1,38.87571721,-77.19124036,Relaxed
3986,Naz Foods Halal Meat & Grocery,4231 Markham St,Ste C,Annandale,VA,22003,3023,FAIRFAX,5,USCGeocoder,0,1,4.1,,,2,Parcel,Success,LOCATION_TYPE_STREET_ADDRESS,Meters,ArealInterpolation,12324.29412,ArealInterpolationGeometricCentroid,Parcel,100,FeatureClassBased,ReturnAll,,ExactParcelCentroidPoint,,,1,38.83270717,-77.19774932,Exact
4318,7-Eleven Inc F 10794B,9402 Richmond Hwy,,Lorton,VA,22079,2125,FAIRFAX,6,USCGeocoder,0,1,4.1,,,2,Parcel,Success,LOCATION_TYPE_STREET_ADDRESS,Meters,ArealInterpolation,1182.252615,ArealInterpolationGeometricCentroid,Parcel,96,FeatureClassBased,ReturnAll,,ExactParcelCentroidPoint,,,1,38.70231048,-77.20955153,Relaxed
4776,7-Eleven Inc F 10657A,1111 Elden St,,Herndon,VA,20170,5502,FAIRFAX,7,USCGeocoder,15.6263,1,4.1,,,2,Parcel,Success,LOCATION_TYPE_STREET_ADDRESS,Meters,ArealInterpolation,1302.679046,ArealInterpolationGeometricCentroid,Parcel,96,FeatureClassBased,ReturnAll,,ExactParcelCentroidPoint,,,1,38.96487793,-77.39713492,Relaxed
4922,Centro Market,2930 Patrick Henry Dr,,Falls Church,VA,22044,2904,FAIRFAX,8,USCGeocoder,0,1,4.1,,,2,Parcel,Success,LOCATION_TYPE_STREET_ADDRESS,Meters,ArealInterpolation,23985.14587,ArealInterpolationGeometricCentroid,Parcel,96,FeatureClassBased,ReturnAll,,ExactParcelCentroidPoint,,,1,38.86988574,-77.14713264,Relaxed
4931,Lideta Market,1607 S Glebe Rd,,Arlington,VA,22204,4346,ARLINGTON,9,USCGeocoder,15.6188,1,4.1,,,2,Parcel,Success,LOCATION_TYPE_STREET_ADDRESS,Meters,ArealInterpolation,498.6814071,ArealInterpolationGeometricCentroid,Parcel,95.32544379,FeatureClassBased,ReturnAll,,ExactParcelCentroidPoint,,,1,38.89058507,-77.11900218,Relaxed
5939,Walmart SuperCenter 5936,1500 Conerside Blvd,,Vienna,VA,22182,,FAIRFAX,10,USCGeocoder,140.6311,1,4.1,,,9,AddressZIPCentroid,Success,LOCATION_TYPE_STREET_ADDRESS,Meters,ArealInterpolation,30597137.76,ArealInterpolationGeometricCentroid,USPSZip,60,FeatureClassBased,ReturnAll,,USPSZipAreaCentroid,,,1,38.928478,-77.261486,Relaxed;Soundex
6699,Asni Inc,1045 S Edgewood St,,Arlington,VA,22204,4813,ARLINGTON,11,USCGeocoder,31.251,1,4.1,,,3,StreetSegmentInterpolation,Success,LOCATION_TYPE_STREET_ADDRESS,Meters,LinearInterpolation,2855.901023,LinearInterpolationAddressRange,StreetSegment,100,FeatureClassBased,ReturnAll,,AddressRangeInterpolation,,,1,38.86225757,-77.08618453,Exact
6878,Community Foodworks Huntington Farmers Market,5919 N Kings Hwy,,Alexandria,VA,22303,2013,FAIRFAX,12,USCGeocoder,46.875,1,4.1,,,3,StreetSegmentInterpolation,Success,LOCATION_TYPE_STREET_ADDRESS,Meters,LinearInterpolation,2276.551728,LinearInterpolationAddressRange,StreetSegment,98.99408284,FeatureClassBased,ReturnAll,,AddressRangeInterpolation,,,1,38.78907025,-77.07641953,Relaxed
6906,Reston Town Center Exxon 20305,11808 Baron Cameron Ave,,Reston,VA,20190,3201,FAIRFAX,13,USCGeocoder,0,1,4.1,,,2,Parcel,Success,LOCATION_TYPE_STREET_ADDRESS,Meters,ArealInterpolation,4623.649707,ArealInterpolationGeometricCentroid,Parcel,100,FeatureClassBased,ReturnAll,,ExactParcelCentroidPoint,,,1,38.96698134,-77.35630754,Exact
7048,GIANT FOOD 763,359 Maple Ave E,,Vienna,VA,22180,4717,FAIRFAX,14,USCGeocoder,31.2503,1,4.1,,,3,StreetSegmentInterpolation,Success,LOCATION_TYPE_STREET_ADDRESS,Meters,LinearInterpolation,5492.740805,LinearInterpolationAddressRange,StreetSegment,100,FeatureClassBased,ReturnAll,,AddressRangeInterpolation,,,1,38.90623249,-77.25922554,Exact
7050,GIANT FOOD 780,3480 S Jefferson St,,Falls Church,VA,22041,3104,FAIRFAX,15,USCGeocoder,171.8738,1,4.1,,,3,StreetSegmentInterpolation,Success,LOCATION_TYPE_STREET_ADDRESS,Meters,LinearInterpolation,1233.438587,LinearInterpolationAddressRange,StreetSegment,98.99408284,FeatureClassBased,ReturnAll,,AddressRangeInterpolation,,,1,38.8518339,-77.11935267,Relaxed
7051,GIANT FOOD 756,8320 Old Keene Mill Rd,,Springfield,VA,22152,1640,FAIRFAX,16,USCGeocoder,46.8766,1,4.1,,,3,StreetSegmentInterpolation,Success,LOCATION_TYPE_STREET_ADDRESS,Meters,LinearInterpolation,8045.165319,LinearInterpolationAddressRange,StreetSegment,99.89940828,FeatureClassBased,ReturnAll,,AddressRangeInterpolation,,,1,38.77998737,-77.23006583,Relaxed
7052,GIANT FOOD 745,13043 Lee Jackson Memorial Hwy,,Fairfax,VA,22033,2001,FAIRFAX,17,USCGeocoder,62.4906,1,4.1,,,3,StreetSegmentInterpolation,Success,LOCATION_TYPE_STREET_ADDRESS,Meters,LinearInterpolation,6004.603033,LinearInterpolationAddressRange,StreetSegment,98.99408284,FeatureClassBased,ReturnAll,,AddressRangeInterpolation,,,1,38.88071736,-77.39723148,Relaxed
7054,SAFEWAY  1283,8646 Richmond Hwy,,Alexandria,VA,22309,4205,FAIRFAX,18,USCGeocoder,15.6219,1,4.1,,,3,StreetSegmentInterpolation,Success,LOCATION_TYPE_STREET_ADDRESS,Meters,LinearInterpolation,3925.733993,LinearInterpolationAddressRange,StreetSegment,98.99408284,FeatureClassBased,ReturnAll,,AddressRangeInterpolation,,,1,38.72258897,-77.12123886,Relaxed
7055,SAFEWAY  878,7900 Fort Hunt Rd,,Alexandria,VA,22308,1203,FAIRFAX,19,USCGeocoder,15.6294,1,4.1,,,2,Parcel,Success,LOCATION_TYPE_STREET_ADDRESS,Meters,ArealInterpolation,7995.077903,ArealInterpolationGeometricCentroid,Parcel,96,FeatureClassBased,ReturnAll,,ExactParcelCentroidPoint,,,1,38.74359758,-77.05752576,Relaxed
7056,SAFEWAY  4933,6244 Old Dominion Dr,,McLean,VA,22101,4217,FAIRFAX,20,USCGeocoder,46.8876,1,4.1,,,3,StreetSegmentInterpolation,Success,LOCATION_TYPE_STREET_ADDRESS,Meters,LinearInterpolation,19844.0222,LinearInterpolationAddressRange,StreetSegment,100,FeatureClassBased,ReturnAll,,AddressRangeInterpolation,,,1,38.92002783,-77.15086693,Exact
7062,SAFEWAY  1285,6130 Rose Hill Dr,,Alexandria,VA,22310,1901,FAIRFAX,21,USCGeocoder,15.6246,1,4.1,,,3,StreetSegmentInterpolation,Success,LOCATION_TYPE_STREET_ADDRESS,Meters,LinearInterpolation,2343.938225,LinearInterpolationAddressRange,StreetSegment,98.99408284,FeatureClassBased,ReturnAll,,AddressRangeInterpolation,,,1,38.7846013,-77.12096097,Relaxed
7064,SAFEWAY  1588,7414 Little River Tpke,,Annandale,VA,22003,3013,FAIRFAX,22,USCGeocoder,15.6305,1,4.1,,,3,StreetSegmentInterpolation,Success,LOCATION_TYPE_STREET_ADDRESS,Meters,LinearInterpolation,7516.251115,LinearInterpolationAddressRange,StreetSegment,100,FeatureClassBased,ReturnAll,,AddressRangeInterpolation,,,1,38.83122901,-77.20039278,Exact
7066,FT BELVOIR COMMISSARY 2413,6050 Gorgas Rd,,Fort Belvoir,VA,22060,6206,FAIRFAX,23,USCGeocoder,15.6234,1,4.1,,,3,StreetSegmentInterpolation,Success,LOCATION_TYPE_STREET_ADDRESS,Meters,LinearInterpolation,1710.546811,LinearInterpolationAddressRange,StreetSegment,100,FeatureClassBased,ReturnAll,,AddressRangeInterpolation,,,1,38.7197926,-77.14583452,Exact
7070,Ft Myers Commissary 2518,523 Carpenter Rd,,Fort Myer,VA,22211,1000,ARLINGTON,24,USCGeocoder,156.2622,1,4.1,,,9,AddressZIPCentroid,Success,LOCATION_TYPE_STREET_ADDRESS,Meters,ArealInterpolation,4533965.403,ArealInterpolationGeometricCentroid,USPSZip,60,FeatureClassBased,ReturnAll,,USPSZipAreaCentroid,,,1,38.886949,-77.078211,Relaxed;Soundex
7073,SAFEWAY  1304,7397 Lee Hwy,,Falls Church,VA,22042,1721,FAIRFAX,25,USCGeocoder,0,1,4.1,,,2,Parcel,Success,LOCATION_TYPE_STREET_ADDRESS,Meters,ArealInterpolation,7840.914082,ArealInterpolationGeometricCentroid,Parcel,96,FeatureClassBased,ReturnAll,,ExactParcelCentroidPoint,,,1,38.87522619,-77.19867125,Relaxed
7074,GIANT FOOD 231,2932 Chain Bridge Rd,,Oakton,VA,22124,3001,FAIRFAX,26,USCGeocoder,31.2531,1,4.1,,,3,StreetSegmentInterpolation,Success,LOCATION_TYPE_STREET_ADDRESS,Meters,LinearInterpolation,6219.200087,LinearInterpolationAddressRange,StreetSegment,100,FeatureClassBased,ReturnAll,,AddressRangeInterpolation,,,1,38.88151308,-77.30009739,Exact
7082,GIANT FOOD 229,8074 Rolling Rd,,Springfield,VA,22153,2928,FAIRFAX,27,USCGeocoder,78.1295,1,4.1,,,3,StreetSegmentInterpolation,Success,LOCATION_TYPE_STREET_ADDRESS,Meters,LinearInterpolation,10763.0338,LinearInterpolationAddressRange,StreetSegment,98.99408284,FeatureClassBased,ReturnAll,,AddressRangeInterpolation,,,1,38.73922076,-77.21143431,Relaxed
7447,C-more Drug Store,6003 Leesburg Pike,,Falls Church,VA,22041,2237,FAIRFAX,28,USCGeocoder,31.2531,1,4.1,,,3,StreetSegmentInterpolation,Success,LOCATION_TYPE_STREET_ADDRESS,Meters,LinearInterpolation,2567.612532,LinearInterpolationAddressRange,StreetSegment,98.99408284,FeatureClassBased,ReturnAll,,AddressRangeInterpolation,,,1,38.85502842,-77.13803473,Relaxed
7862,"H MART HERNDON,LLC",1228 Elden St,,Herndon,VA,20170,5504,FAIRFAX,29,USCGeocoder,15.6213,1,4.1,,,2,Parcel,Success,LOCATION_TYPE_STREET_ADDRESS,Meters,ArealInterpolation,29451.53932,ArealInterpolationGeometricCentroid,Parcel,96,FeatureClassBased,ReturnAll,,ExactParcelCentroidPoint,,,1,38.96236557,-77.4005761,Relaxed
8703,1st Variety Mart LLC,5820 Seminary Rd,Ste K,Falls Church,VA,22041,3045,FAIRFAX,30,USCGeocoder,0,1,4.1,,,2,Parcel,Success,LOCATION_TYPE_STREET_ADDRESS,Meters,ArealInterpolation,8436.952103,ArealInterpolationGeometricCentroid,Parcel,96,FeatureClassBased,ReturnAll,,ExactParcelCentroidPoint,,,1,38.84738195,-77.12777931,Relaxed
8765,Giant Food 2741,10653 Braddock Rd,,Fairfax,VA,22032,2202,FAIRFAX,31,USCGeocoder,62.5013,1,4.1,,,3,StreetSegmentInterpolation,Success,LOCATION_TYPE_STREET_ADDRESS,Meters,LinearInterpolation,12186.93617,LinearInterpolationAddressRange,StreetSegment,98.99408284,FeatureClassBased,ReturnAll,,AddressRangeInterpolation,,,1,38.82650989,-77.31459508,Relaxed
9156,Ali Baba Groceries And Halal Meat,6701 Richmond Hwy,Ste 104,Alexandria,VA,22306,6710,FAIRFAX,32,USCGeocoder,0,1,4.1,,,2,Parcel,Success,LOCATION_TYPE_STREET_ADDRESS,Meters,ArealInterpolation,2278.342862,ArealInterpolationGeometricCentroid,Parcel,96,FeatureClassBased,ReturnAll,,ExactParcelCentroidPoint,,,1,38.77290931,-77.08040998,Relaxed
9530,Arlington Mill Farmers Market,909 S Dinwiddie St,,Arlington,VA,22204,2983,ARLINGTON,33,USCGeocoder,31.7233,1,4.1,,,3,StreetSegmentInterpolation,Success,LOCATION_TYPE_STREET_ADDRESS,Meters,LinearInterpolation,2260.23865,LinearInterpolationAddressRange,StreetSegment,100,FeatureClassBased,ReturnAll,,AddressRangeInterpolation,,,1,38.85667091,-77.11264051,Exact
10321,Tiger Market & Bakery,3903 Mount Vernon Ave,,Alexandria,VA,22305,2223,ALEXANDRIA,34,USCGeocoder,78.1249,1,4.1,,,3,StreetSegmentInterpolation,Success,LOCATION_TYPE_STREET_ADDRESS,Meters,LinearInterpolation,1969.369034,LinearInterpolationAddressRange,StreetSegment,100,FeatureClassBased,ReturnAll,,AddressRangeInterpolation,,,1,38.84131367,-77.06321572,Exact
10983,Target Store 3210,1500 Wilson Blvd,,Rosslyn,VA,22209,,ARLINGTON,35,USCGeocoder,0,1,4.1,,,2,Parcel,Success,LOCATION_TYPE_STREET_ADDRESS,Meters,ArealInterpolation,4595.110928,ArealInterpolationGeometricCentroid,Parcel,96,FeatureClassBased,ReturnAll,,ExactParcelCentroidPoint,,,1,38.8943486,-77.07435492,Relaxed
11778,Bangla Bazar,5149 Lee Hwy,,Arlington,VA,22207,1603,ARLINGTON,36,USCGeocoder,46.8811,1,4.1,,,3,StreetSegmentInterpolation,Success,LOCATION_TYPE_STREET_ADDRESS,Meters,LinearInterpolation,3334.801395,LinearInterpolationAddressRange,StreetSegment,100,FeatureClassBased,ReturnAll,,AddressRangeInterpolation,,,1,38.89642801,-77.13224387,Exact
12188,7-Eleven Inc F 34336A,5834 N. Kings Highway,,Alexandria,VA,22303,,FAIRFAX,37,USCGeocoder,15.4359,1,4.1,,,3,StreetSegmentInterpolation,Success,LOCATION_TYPE_STREET_ADDRESS,Meters,LinearInterpolation,1752.784298,LinearInterpolationAddressRange,StreetSegment,98.99408284,FeatureClassBased,ReturnAll,,AddressRangeInterpolation,,,1,38.79120107,-77.07653259,Relaxed
12340,7-eleven 34082A,3503 Fairfax Dr,,Arlington,VA,22201,2350,ARLINGTON,38,USCGeocoder,31.2545,1,4.1,,,3,StreetSegmentInterpolation,Success,LOCATION_TYPE_STREET_ADDRESS,Meters,LinearInterpolation,2124.620003,LinearInterpolationAddressRange,StreetSegment,100,FeatureClassBased,ReturnAll,,AddressRangeInterpolation,,,1,38.8842108,-77.10166628,Exact
13314,7-Eleven Inc F 30479A,6221 Rolling Rd,,Springfield,VA,22152,1637,FAIRFAX,39,USCGeocoder,0,1,4.1,,,2,Parcel,Success,LOCATION_TYPE_STREET_ADDRESS,Meters,ArealInterpolation,3999.61564,ArealInterpolationGeometricCentroid,Parcel,96,FeatureClassBased,ReturnAll,,ExactParcelCentroidPoint,,,1,38.78131483,-77.23378833,Relaxed
13489,Lorton Farmers Market/Arcadia Foods Inc,8990 Lorton Station Blvd,,Lorton,VA,22079,4733,FAIRFAX,40,USCGeocoder,0,1,4.1,,,2,Parcel,Success,LOCATION_TYPE_STREET_ADDRESS,Meters,ArealInterpolation,196080.8636,ArealInterpolationGeometricCentroid,Parcel,96,FeatureClassBased,ReturnAll,,ExactParcelCentroidPoint,,,1,38.71922036,-77.2075424,Relaxed
14024,GIANT FOOD 748,2901-11 S Glebe Rd,,Arlington,VA,22206,2710,ARLINGTON,41,USCGeocoder,15.6232,1,4.1,,,2,Parcel,Success,LOCATION_TYPE_STREET_ADDRESS,Meters,ArealInterpolation,14538.31938,ArealInterpolationGeometricCentroid,Parcel,96.63313609,FeatureClassBased,ReturnAll,,ExactParcelCentroidPoint,,,1,38.84539635,-77.06891436,Relaxed
14025,GIANT FOOD 771,3115 Lee Hwy,,Arlington,VA,22201,4207,ARLINGTON,42,USCGeocoder,0,1,4.1,,,2,Parcel,Success,LOCATION_TYPE_STREET_ADDRESS,Meters,ArealInterpolation,16184.2677,ArealInterpolationGeometricCentroid,Parcel,100,FeatureClassBased,ReturnAll,,ExactParcelCentroidPoint,,,1,38.89662321,-77.09631368,Exact
14027,SAFEWAY  764,2500 N Harrison St,,Arlington,VA,22207,1600,ARLINGTON,43,USCGeocoder,15.6226,1,4.1,,,2,Parcel,Success,LOCATION_TYPE_STREET_ADDRESS,Meters,ArealInterpolation,9272.665598,ArealInterpolationGeometricCentroid,Parcel,100,FeatureClassBased,ReturnAll,,ExactParcelCentroidPoint,,,1,38.89685155,-77.13942322,Exact
14028,SAFEWAY  1358,5101 Wilson Blvd,,Arlington,VA,22205,1111,ARLINGTON,44,USCGeocoder,0,1,4.1,,,2,Parcel,Success,LOCATION_TYPE_STREET_ADDRESS,Meters,ArealInterpolation,9480.237892,ArealInterpolationGeometricCentroid,Parcel,100,FeatureClassBased,ReturnAll,,ExactParcelCentroidPoint,,,1,38.87805078,-77.12315177,Exact
14032,7-Eleven 10780T,3023 Duke St,,Alexandria,VA,22314,4516,ALEXANDRIA,45,USCGeocoder,15.6243,1,4.1,,,3,StreetSegmentInterpolation,Success,LOCATION_TYPE_STREET_ADDRESS,Meters,LinearInterpolation,2576.972979,LinearInterpolationAddressRange,StreetSegment,100,FeatureClassBased,ReturnAll,,AddressRangeInterpolation,,,1,38.80760136,-77.0821137,Exact
14051,Giant Food 2742,621 E Glebe Rd,,Alexandria,VA,22305,3045,ALEXANDRIA,46,USCGeocoder,31.2555,1,4.1,,,3,StreetSegmentInterpolation,Success,LOCATION_TYPE_STREET_ADDRESS,Meters,LinearInterpolation,795.5003933,LinearInterpolationAddressRange,StreetSegment,95.85798817,FeatureClassBased,ReturnAll,,AddressRangeInterpolation,,,1,38.8402756,-77.06752687,Relaxed
14052,SAFEWAY  866,500 S Royal St,,Alexandria,VA,22314,4140,ALEXANDRIA,47,USCGeocoder,46.8731,1,4.1,,,3,StreetSegmentInterpolation,Success,LOCATION_TYPE_STREET_ADDRESS,Meters,LinearInterpolation,2875.117519,LinearInterpolationAddressRange,StreetSegment,100,FeatureClassBased,ReturnAll,,AddressRangeInterpolation,,,1,38.80005859,-77.04452009,Exact
14191,Speedway 2870,7100 Little River Tpke,,Annandale,VA,22003,3101,FAIRFAX,48,USCGeocoder,15.6272,1,4.1,,,2,Parcel,Success,LOCATION_TYPE_STREET_ADDRESS,Meters,ArealInterpolation,2786.798931,ArealInterpolationGeometricCentroid,Parcel,100,FeatureClassBased,ReturnAll,,ExactParcelCentroidPoint,,,1,38.83000332,-77.19044065,Exact
14362,BESTWAY VA SUPER MARKET,3109 Graham Rd,,Falls Church,VA,22042,2505,FAIRFAX,49,USCGeocoder,46.8737,1,4.1,,,3,StreetSegmentInterpolation,Success,LOCATION_TYPE_STREET_ADDRESS,Meters,LinearInterpolation,5484.110625,LinearInterpolationAddressRange,StreetSegment,98.99408284,FeatureClassBased,ReturnAll,,AddressRangeInterpolation,,,1,38.86562899,-77.19477688,Relaxed
14657,HARRIS TEETER 279,6351 Columbia Pike,,Falls Church,VA,22041,1224,FAIRFAX,50,USCGeocoder,31.2599,1,4.1,,,3,StreetSegmentInterpolation,Success,LOCATION_TYPE_STREET_ADDRESS,Meters,LinearInterpolation,7006.274886,LinearInterpolationAddressRange,StreetSegment,98.99408284,FeatureClassBased,ReturnAll,,AddressRangeInterpolation,,,1,38.83724942,-77.15578123,Relaxed
14758,GIANT FOOD 2747,6200 Little River Tpke,,Alexandria,VA,22312,1700,FAIRFAX,51,USCGeocoder,0,1,4.1,,,2,Parcel,Success,LOCATION_TYPE_STREET_ADDRESS,Meters,ArealInterpolation,92097.66193,ArealInterpolationGeometricCentroid,Parcel,96,FeatureClassBased,ReturnAll,,ExactParcelCentroidPoint,,,1,38.81896277,-77.14093378,Relaxed
15433,CVS 10170,8117 Leesburg Pike,,Vienna,VA,22182,,FAIRFAX,52,USCGeocoder,0,1,4.1,,,2,Parcel,Success,LOCATION_TYPE_STREET_ADDRESS,Meters,ArealInterpolation,2056.790333,ArealInterpolationGeometricCentroid,Parcel,96,FeatureClassBased,ReturnAll,,ExactParcelCentroidPoint,,,1,38.91470135,-77.22622872,Relaxed
15975,Arlington Grocery,2524 Columbia Pike,,Arlington,VA,22204,4408,ARLINGTON,53,USCGeocoder,31.2532,1,4.1,,,3,StreetSegmentInterpolation,Success,LOCATION_TYPE_STREET_ADDRESS,Meters,LinearInterpolation,2117.265534,LinearInterpolationAddressRange,StreetSegment,97.92899408,FeatureClassBased,ReturnAll,,AddressRangeInterpolation,,,1,38.86315335,-77.08432109,Relaxed
16291,EZ STOP & GO FOOD MART,7600 Lee Hwy,,Falls Church,VA,22042,2869,FAIRFAX,54,USCGeocoder,0,1,4.1,,,2,Parcel,Success,LOCATION_TYPE_STREET_ADDRESS,Meters,ArealInterpolation,1369.045449,ArealInterpolationGeometricCentroid,Parcel,96,FeatureClassBased,ReturnAll,,ExactParcelCentroidPoint,,,1,38.87564032,-77.20778289,Relaxed
16460,Super Giant 0774,2501 9th Rd S,,Arlington,VA,22204,2351,ARLINGTON,55,USCGeocoder,156.2477,1,4.1,,,3,StreetSegmentInterpolation,Success,LOCATION_TYPE_STREET_ADDRESS,Meters,LinearInterpolation,6433.064513,LinearInterpolationAddressRange,StreetSegment,94.08284024,FeatureClassBased,ReturnAll,,AddressRangeInterpolation,,,1,38.86464535,-77.08461284,Relaxed
16789,7-Eleven 10709C,4818 Beauregard St,,Alexandria,VA,22312,1736,FAIRFAX,56,USCGeocoder,46.8763,1,4.1,,,3,StreetSegmentInterpolation,Success,LOCATION_TYPE_STREET_ADDRESS,Meters,LinearInterpolation,3275.445321,LinearInterpolationAddressRange,StreetSegment,98.99408284,FeatureClassBased,ReturnAll,,AddressRangeInterpolation,,,1,38.81964383,-77.14313252,Relaxed
18167,7-Eleven Inc F 34269A,504 John Carlyle St,,Alexandria,VA,22314,6802,ALEXANDRIA,57,USCGeocoder,31.2514,1,4.1,,,3,StreetSegmentInterpolation,Success,LOCATION_TYPE_STREET_ADDRESS,Meters,LinearInterpolation,2391.015107,LinearInterpolationAddressRange,StreetSegment,100,FeatureClassBased,ReturnAll,,AddressRangeInterpolation,,,1,38.80155424,-77.06177591,Exact
18212,7-Eleven Inc F 10769A,421 E Braddock Rd,,Alexandria,VA,22301,2119,ALEXANDRIA,58,USCGeocoder,15.6259,1,4.1,,,3,StreetSegmentInterpolation,Success,LOCATION_TYPE_STREET_ADDRESS,Meters,LinearInterpolation,3246.552922,LinearInterpolationAddressRange,StreetSegment,100,FeatureClassBased,ReturnAll,,AddressRangeInterpolation,,,1,38.81352693,-77.05609991,Exact
19477,La Mart 3,6711 Bland St,,Springfield,VA,22150,2508,FAIRFAX,59,USCGeocoder,31.2516,1,4.1,,,3,StreetSegmentInterpolation,Success,LOCATION_TYPE_STREET_ADDRESS,Meters,LinearInterpolation,2881.416853,LinearInterpolationAddressRange,StreetSegment,100,FeatureClassBased,ReturnAll,,AddressRangeInterpolation,,,1,38.78077244,-77.18290393,Exact
19653,Dollar Tree 4715,14120B Lee Hwy,,Centreville,VA,20120,1913,FAIRFAX,60,USCGeocoder,31.2495,1,4.1,,,3,StreetSegmentInterpolation,Success,LOCATION_TYPE_STREET_ADDRESS,Meters,LinearInterpolation,7663.278714,LinearInterpolationAddressRange,StreetSegment,100,FeatureClassBased,ReturnAll,,AddressRangeInterpolation,,,1,38.83882904,-77.43331837,Exact
19857,Dollar Tree 919,9232 Old Keene Mill Rd,Ste. B,Burke,VA,22015,,FAIRFAX,61,USCGeocoder,15.6207,1,4.1,,,3,StreetSegmentInterpolation,Success,LOCATION_TYPE_STREET_ADDRESS,Meters,LinearInterpolation,12438.92113,LinearInterpolationAddressRange,StreetSegment,100,FeatureClassBased,ReturnAll,,AddressRangeInterpolation,,,1,38.7755108,-77.26383715,Exact
20098,Mt Vernon Farmers Market/Arcadia Foods Inc,2501 Sherwood Hall Ln,,Alexandria,VA,22306,2702,FAIRFAX,62,USCGeocoder,0,1,4.1,,,2,Parcel,Success,LOCATION_TYPE_STREET_ADDRESS,Meters,ArealInterpolation,17149.84188,ArealInterpolationGeometricCentroid,Parcel,96,FeatureClassBased,ReturnAll,,ExactParcelCentroidPoint,,,1,38.74327113,-77.07543033,Relaxed
20177,Eden Supermarket 1,6763 Wilson Blvd.,,Falls Church,VA,22044,,FAIRFAX,63,USCGeocoder,125.0106,1,4.1,,,9,AddressZIPCentroid,Success,LOCATION_TYPE_STREET_ADDRESS,Meters,ArealInterpolation,5897330.856,ArealInterpolationGeometricCentroid,USPSZip,60,FeatureClassBased,ReturnAll,,USPSZipAreaCentroid,,,1,38.856209,-77.15702,Relaxed;Soundex
20727,R.k. Market,1611 Washington Plz,,Reston,VA,20190,4305,FAIRFAX,64,USCGeocoder,0,1,4.1,,,2,Parcel,Success,LOCATION_TYPE_STREET_ADDRESS,Meters,ArealInterpolation,51.89818482,ArealInterpolationGeometricCentroid,Parcel,100,FeatureClassBased,ReturnAll,,ExactParcelCentroidPoint,,,1,38.96896431,-77.34086744,Exact
21002,GIANT FOOD 261,3131 Duke St,,Alexandria,VA,22314,4518,ALEXANDRIA,65,USCGeocoder,15.6314,1,4.1,,,3,StreetSegmentInterpolation,Success,LOCATION_TYPE_STREET_ADDRESS,Meters,LinearInterpolation,6187.708686,LinearInterpolationAddressRange,StreetSegment,100,FeatureClassBased,ReturnAll,,AddressRangeInterpolation,,,1,38.80786156,-77.08395285,Exact
21270,Wegmans 133,14361 Newbrook Dr,,Chantilly,VA,20151,4228,FAIRFAX,66,USCGeocoder,93.7479,1,4.1,,,9,AddressZIPCentroid,Success,LOCATION_TYPE_STREET_ADDRESS,Meters,ArealInterpolation,40587317.75,ArealInterpolationGeometricCentroid,USPSZip,60,FeatureClassBased,ReturnAll,,USPSZipAreaCentroid,,,1,38.888306,-77.453725,Relaxed;Soundex
21491,Central Supermarket,6222 Richmond Hwy,,Alexandria,VA,22303,2438,FAIRFAX,67,USCGeocoder,15.6308,1,4.1,,,3,StreetSegmentInterpolation,Success,LOCATION_TYPE_STREET_ADDRESS,Meters,LinearInterpolation,5908.385985,LinearInterpolationAddressRange,StreetSegment,98.99408284,FeatureClassBased,ReturnAll,,AddressRangeInterpolation,,,1,38.78291908,-77.07647011,Relaxed
22043,MOM's Organic Market 8,424 Elden St,,Herndon,VA,20170,4511,FAIRFAX,68,USCGeocoder,15.6226,1,4.1,,,3,StreetSegmentInterpolation,Success,LOCATION_TYPE_STREET_ADDRESS,Meters,LinearInterpolation,3092.389757,LinearInterpolationAddressRange,StreetSegment,100,FeatureClassBased,ReturnAll,,AddressRangeInterpolation,,,1,38.96780524,-77.37494853,Exact
22138,CVS Pharmacy 1398,6436 Springfield Plz,,Springfield,VA,22150,3428,FAIRFAX,69,USCGeocoder,0,1,4.1,,,2,Parcel,Success,LOCATION_TYPE_STREET_ADDRESS,Meters,ArealInterpolation,31522.85236,ArealInterpolationGeometricCentroid,Parcel,96,FeatureClassBased,ReturnAll,,ExactParcelCentroidPoint,,,1,38.77942295,-77.18941288,Relaxed
23558,CVS Pharmacy 10971,1906 Reston Metro Plz,,Reston,VA,20190,5231,FAIRFAX,70,USCGeocoder,125.3206,1,4.1,,,9,AddressZIPCentroid,Success,LOCATION_TYPE_STREET_ADDRESS,Meters,ArealInterpolation,11940663.71,ArealInterpolationGeometricCentroid,USPSZip,60,FeatureClassBased,ReturnAll,,USPSZipAreaCentroid,,,1,38.958168,-77.341846,Relaxed;Soundex
23713,Freshfarm Oakton Farmers Market n/a,2854 Hunter Mill Rd,,Oakton,VA,22124,1701,FAIRFAX,71,USCGeocoder,140.6375,1,4.1,,,3,StreetSegmentInterpolation,Success,LOCATION_TYPE_STREET_ADDRESS,Meters,LinearInterpolation,2960.514655,LinearInterpolationAddressRange,StreetSegment,100,FeatureClassBased,ReturnAll,,AddressRangeInterpolation,,,1,38.88861552,-77.30330298,Exact
24391,7-Eleven Inc F 28506A,7924 Fort Hunt Rd,,Alexandria,VA,22308,1203,FAIRFAX,72,USCGeocoder,15.6259,1,4.1,,,3,StreetSegmentInterpolation,Success,LOCATION_TYPE_STREET_ADDRESS,Meters,LinearInterpolation,4920.704476,LinearInterpolationAddressRange,StreetSegment,98.99408284,FeatureClassBased,ReturnAll,,AddressRangeInterpolation,,,1,38.74195011,-77.05598987,Relaxed
25736,"Mi Tierra Mercado Latino, Inc.",6531F Little River Tpke,,Alexandria,VA,22312,1418,FAIRFAX,73,USCGeocoder,15.6225,1,4.1,,,2,Parcel,Success,LOCATION_TYPE_STREET_ADDRESS,Meters,ArealInterpolation,4805.320288,ArealInterpolationGeometricCentroid,Parcel,93.63313609,FeatureClassBased,ReturnAll,,ExactParcelCentroidPoint,,,1,38.82122298,-77.15917412,Relaxed
25856,7-eleven 28525A,1436 Chain Bridge Rd,,Mclean,VA,22101,3701,FAIRFAX,74,USCGeocoder,15.6279,1,4.1,,,2,Parcel,Success,LOCATION_TYPE_STREET_ADDRESS,Meters,ArealInterpolation,2514.352165,ArealInterpolationGeometricCentroid,Parcel,100,FeatureClassBased,ReturnAll,,ExactParcelCentroidPoint,,,1,38.93370214,-77.17852425,Exact
26484,Trader Joes 640,1109 N Highland St,,Arlington,VA,22201,2807,ARLINGTON,75,USCGeocoder,46.8755,1,4.1,,,3,StreetSegmentInterpolation,Success,LOCATION_TYPE_STREET_ADDRESS,Meters,LinearInterpolation,2191.795541,LinearInterpolationAddressRange,StreetSegment,100,FeatureClassBased,ReturnAll,,AddressRangeInterpolation,,,1,38.88641599,-77.09476896,Exact
26615,Asia Halal Supermarket,5171 Lee Hwy,,Arlington,VA,22207,1603,ARLINGTON,76,USCGeocoder,15.6234,1,4.1,,,3,StreetSegmentInterpolation,Success,LOCATION_TYPE_STREET_ADDRESS,Meters,LinearInterpolation,2746.760144,LinearInterpolationAddressRange,StreetSegment,100,FeatureClassBased,ReturnAll,,AddressRangeInterpolation,,,1,38.89642495,-77.13284085,Exact
27299,7-Eleven Inc F 34684A,9617 Fairfax Blvd,,Fairfax,VA,22031,2321,FAIRFAX,77,USCGeocoder,15.6255,1,4.1,,,3,StreetSegmentInterpolation,Success,LOCATION_TYPE_STREET_ADDRESS,Meters,LinearInterpolation,695.5059318,LinearInterpolationAddressRange,StreetSegment,100,FeatureClassBased,ReturnAll,,AddressRangeInterpolation,,,1,38.86446256,-77.2764928,Exact
28610,SAFEWAY  1847,5980 Kingstowne Towne Ctr,,Alexandria,VA,22315,5876,FAIRFAX,78,USCGeocoder,171.8801,1,4.1,,,9,AddressZIPCentroid,Success,LOCATION_TYPE_STREET_ADDRESS,Meters,ArealInterpolation,14570873.85,ArealInterpolationGeometricCentroid,USPSZip,60,FeatureClassBased,ReturnAll,,USPSZipAreaCentroid,,,1,38.78448,-77.1252,Relaxed;Soundex
29553,Walgreens 11297,3050 Nutley St,,Fairfax,VA,22031,1924,FAIRFAX,79,USCGeocoder,0,1,4.1,,,2,Parcel,Success,LOCATION_TYPE_STREET_ADDRESS,Meters,ArealInterpolation,54996.85926,ArealInterpolationGeometricCentroid,Parcel,99,FeatureClassBased,ReturnAll,,ExactParcelCentroidPoint,,,1,38.86869145,-77.26335235,Relaxed
30011,Engocha Llc,3823A S George Mason Dr,,Falls Church,VA,22041,3763,FAIRFAX,80,USCGeocoder,31.2506,1,4.1,,,3,StreetSegmentInterpolation,Success,LOCATION_TYPE_STREET_ADDRESS,Meters,LinearInterpolation,3381.795073,LinearInterpolationAddressRange,StreetSegment,98.99408284,FeatureClassBased,ReturnAll,,AddressRangeInterpolation,,,1,38.84150834,-77.11995439,Relaxed
30726,"H Mart Centreville, Llc",13818 Braddock Rd,,Centreville,VA,20121,2412,FAIRFAX,81,USCGeocoder,31.258,1,4.1,,,3,StreetSegmentInterpolation,Success,LOCATION_TYPE_STREET_ADDRESS,Meters,LinearInterpolation,16744.84634,LinearInterpolationAddressRange,StreetSegment,100,FeatureClassBased,ReturnAll,,AddressRangeInterpolation,,,1,38.83544687,-77.42637107,Exact
31079,7-Eleven Inc F 10671A,10508 Leesburg Pike,,Vienna,VA,22182,1333,FAIRFAX,82,USCGeocoder,0,1,4.1,,,2,Parcel,Success,LOCATION_TYPE_STREET_ADDRESS,Meters,ArealInterpolation,2263.584106,ArealInterpolationGeometricCentroid,Parcel,96,FeatureClassBased,ReturnAll,,ExactParcelCentroidPoint,,,1,38.97627517,-77.30906506,Relaxed
31356,Costco Wholesale 1115,7940 Richmond Hwy,,Alexandria,VA,22306,7826,FAIRFAX,83,USCGeocoder,0,1,4.1,,,2,Parcel,Success,LOCATION_TYPE_STREET_ADDRESS,Meters,ArealInterpolation,48914.82415,ArealInterpolationGeometricCentroid,Parcel,96,FeatureClassBased,ReturnAll,,ExactParcelCentroidPoint,,,1,38.7420345,-77.0877711,Relaxed
31451,7-Eleven 10760B,5725 Edsall Rd,,Alexandria,VA,22304,4711,ALEXANDRIA,84,USCGeocoder,31.251,1,4.1,,,3,StreetSegmentInterpolation,Success,LOCATION_TYPE_STREET_ADDRESS,Meters,LinearInterpolation,4401.066525,LinearInterpolationAddressRange,StreetSegment,100,FeatureClassBased,ReturnAll,,AddressRangeInterpolation,,,1,38.80776866,-77.1306352,Exact
31765,La Latina,7010 Commerce St,,Springfield,VA,22150,3433,FAIRFAX,85,USCGeocoder,15.6254,1,4.1,,,3,StreetSegmentInterpolation,Success,LOCATION_TYPE_STREET_ADDRESS,Meters,LinearInterpolation,6761.446763,LinearInterpolationAddressRange,StreetSegment,100,FeatureClassBased,ReturnAll,,AddressRangeInterpolation,,,1,38.78280464,-77.18790207,Exact
31789,7-Eleven Inc F 27547A,50300 Lee Highway,,Arlington,VA,22207,,ARLINGTON,86,USCGeocoder,470.337,1,4.1,,,9,AddressZIPCentroid,Success,LOCATION_TYPE_STREET_ADDRESS,Meters,ArealInterpolation,16707554.9,ArealInterpolationGeometricCentroid,USPSZip,60,FeatureClassBased,ReturnAll,,USPSZipAreaCentroid,,,1,38.903531,-77.129764,Relaxed;Soundex
32140,7-Eleven Inc F 10705A,7243 Arlington Blvd,,Falls Church,VA,22042,3219,FAIRFAX,87,USCGeocoder,31.2493,1,4.1,,,3,StreetSegmentInterpolation,Success,LOCATION_TYPE_STREET_ADDRESS,Meters,LinearInterpolation,2965.204598,LinearInterpolationAddressRange,StreetSegment,98.99408284,FeatureClassBased,ReturnAll,,AddressRangeInterpolation,,,1,38.866238,-77.1956432,Relaxed
32219,La Latina Market,5838 N Kings Hwy,Ste C,Alexandria,VA,22303,2000,FAIRFAX,88,USCGeocoder,0,1,4.1,,,2,Parcel,Success,LOCATION_TYPE_STREET_ADDRESS,Meters,ArealInterpolation,9647.190368,ArealInterpolationGeometricCentroid,Parcel,96,FeatureClassBased,ReturnAll,,ExactParcelCentroidPoint,,,1,38.78991304,-77.07694679,Relaxed
33352,Lidl 1446,6548 Little River Tpke,,Alexandria,VA,22312,1443,FAIRFAX,89,USCGeocoder,15.6232,1,4.1,,,3,StreetSegmentInterpolation,Success,LOCATION_TYPE_STREET_ADDRESS,Meters,LinearInterpolation,4082.132944,LinearInterpolationAddressRange,StreetSegment,98.99408284,FeatureClassBased,ReturnAll,,AddressRangeInterpolation,,,1,38.82234976,-77.16187242,Relaxed
33525,Arcadia Food Inc.,9000 Richmond Highway,,Alexandria,VA,22309,,FAIRFAX,90,USCGeocoder,15.624,1,4.1,,,3,StreetSegmentInterpolation,Success,LOCATION_TYPE_STREET_ADDRESS,Meters,LinearInterpolation,3559.133427,LinearInterpolationAddressRange,StreetSegment,98.99408284,FeatureClassBased,ReturnAll,,AddressRangeInterpolation,,,1,38.71518791,-77.13738735,Relaxed
33531,Jummah Bazaar,6353 Rolling Rd,,Springfield,VA,22152,2426,FAIRFAX,91,USCGeocoder,46.8718,1,4.1,,,3,StreetSegmentInterpolation,Success,LOCATION_TYPE_STREET_ADDRESS,Meters,LinearInterpolation,2219.986558,LinearInterpolationAddressRange,StreetSegment,99.89940828,FeatureClassBased,ReturnAll,,AddressRangeInterpolation,,,1,38.77825837,-77.23261987,Relaxed
34445,Miragold International Foods Inc.,710 Elden St,,Herndon,VA,20170,4634,FAIRFAX,92,USCGeocoder,15.6257,1,4.1,,,3,StreetSegmentInterpolation,Success,LOCATION_TYPE_STREET_ADDRESS,Meters,LinearInterpolation,2544.695874,LinearInterpolationAddressRange,StreetSegment,100,FeatureClassBased,ReturnAll,,AddressRangeInterpolation,,,1,38.96979013,-77.38560982,Exact
34453,GIANT FOOD 744,5740 Union Mill Rd,,Clifton,VA,20124,1088,FAIRFAX,93,USCGeocoder,31.2579,1,4.1,,,3,StreetSegmentInterpolation,Success,LOCATION_TYPE_STREET_ADDRESS,Meters,LinearInterpolation,5709.213795,LinearInterpolationAddressRange,StreetSegment,98.99408284,FeatureClassBased,ReturnAll,,AddressRangeInterpolation,,,1,38.83413833,-77.41163745,Relaxed
34642,DOLLAR TREE 5140,264 CEDAR LN SE,STE AB-C,Vienna,VA,22180,6613,FAIRFAX,94,USCGeocoder,218.9683,1,4.1,,,9,AddressZIPCentroid,Success,LOCATION_TYPE_STREET_ADDRESS,Meters,ArealInterpolation,15070035.28,ArealInterpolationGeometricCentroid,USPSZip,60,FeatureClassBased,ReturnAll,,USPSZipAreaCentroid,,,1,38.896094,-77.256034,Relaxed;Soundex
34684,Skyline Stop,5601 Seminary Rd,Ste 4N,Falls Church,VA,22041,3571,FAIRFAX,95,USCGeocoder,0,1,4.1,,,2,Parcel,Success,LOCATION_TYPE_STREET_ADDRESS,Meters,ArealInterpolation,29965.37703,ArealInterpolationGeometricCentroid,Parcel,96,FeatureClassBased,ReturnAll,,ExactParcelCentroidPoint,,,1,38.84631849,-77.1222277,Relaxed
34990,SAFEWAY  1428,299 S Van Dorn St,,Alexandria,VA,22304,4303,ALEXANDRIA,96,USCGeocoder,31.2522,1,4.1,,,3,StreetSegmentInterpolation,Success,LOCATION_TYPE_STREET_ADDRESS,Meters,LinearInterpolation,2414.838758,LinearInterpolationAddressRange,StreetSegment,100,FeatureClassBased,ReturnAll,,AddressRangeInterpolation,,,1,38.81124241,-77.13188916,Exact
36478,Walgreens 19791,9579 Braddock Rd,,Fairfax,VA,22032,2539,FAIRFAX,97,USCGeocoder,15.623,1,4.1,,,3,StreetSegmentInterpolation,Success,LOCATION_TYPE_STREET_ADDRESS,Meters,LinearInterpolation,7425.795865,LinearInterpolationAddressRange,StreetSegment,98.99408284,FeatureClassBased,ReturnAll,,AddressRangeInterpolation,,,1,38.81843997,-77.27571138,Relaxed
36645,Community Foodworks Chantilly Farmers Market,3460 Centreville Road,,Chantilly,VA,20151,,FAIRFAX,98,USCGeocoder,31.9942,1,4.1,,,3,StreetSegmentInterpolation,Success,LOCATION_TYPE_STREET_ADDRESS,Meters,LinearInterpolation,4270.666018,LinearInterpolationAddressRange,StreetSegment,98.99408284,FeatureClassBased,ReturnAll,,AddressRangeInterpolation,,,1,38.9063326,-77.42302103,Relaxed
37497,Walmart 5969,4368 Chantilly Shopping Center Dr,,Chantilly,VA,20151,4016,FAIRFAX,99,USCGeocoder,31.2729,1,4.1,,,3,StreetSegmentInterpolation,Success,LOCATION_TYPE_STREET_ADDRESS,Meters,LinearInterpolation,2180.180516,LinearInterpolationAddressRange,StreetSegment,97.04142012,FeatureClassBased,ReturnAll,,AddressRangeInterpolation,,,1,38.88759379,-77.44456846,Relaxed
37899,7-Eleven Inc F 28556A,8391 Leesburg Pike,,Vienna,VA,22182,2402,FAIRFAX,100,USCGeocoder,15.6287,1,4.1,,,3,StreetSegmentInterpolation,Success,LOCATION_TYPE_STREET_ADDRESS,Meters,LinearInterpolation,16403.41708,LinearInterpolationAddressRange,StreetSegment,98.99408284,FeatureClassBased,ReturnAll,,AddressRangeInterpolation,,,1,38.9233639,-77.23642963,Relaxed
38155,DOLLAR TREE 5317,7812 Richmond Hwy,,Alexandria,VA,22306,7824,FAIRFAX,101,USCGeocoder,8.8455,1,4.1,,,3,StreetSegmentInterpolation,Success,LOCATION_TYPE_STREET_ADDRESS,Meters,LinearInterpolation,4256.862463,LinearInterpolationAddressRange,StreetSegment,98.99408284,FeatureClassBased,ReturnAll,,AddressRangeInterpolation,,,1,38.74543414,-77.08363829,Relaxed
38291,La Feria Latina,3842 Mount Vernon Ave,,Alexandria,VA,22305,2409,ALEXANDRIA,102,USCGeocoder,46.873,1,4.1,,,3,StreetSegmentInterpolation,Success,LOCATION_TYPE_STREET_ADDRESS,Meters,LinearInterpolation,7954.480204,LinearInterpolationAddressRange,StreetSegment,100,FeatureClassBased,ReturnAll,,AddressRangeInterpolation,,,1,38.84019132,-77.06296287,Exact
38622,7-Eleven 34646B,1625 Wilson Blvd,,Arlington,VA,22209,2501,ARLINGTON,103,USCGeocoder,15.6223,1,4.1,,,2,Parcel,Success,LOCATION_TYPE_STREET_ADDRESS,Meters,ArealInterpolation,594.6293772,ArealInterpolationGeometricCentroid,Parcel,100,FeatureClassBased,ReturnAll,,ExactParcelCentroidPoint,,,1,38.89434787,-77.07805996,Exact
39508,Brook Market,2522 Columbia Pike,,Arlington,VA,22204,4408,ARLINGTON,104,USCGeocoder,15.6218,1,4.1,,,3,StreetSegmentInterpolation,Success,LOCATION_TYPE_STREET_ADDRESS,Meters,LinearInterpolation,2117.265534,LinearInterpolationAddressRange,StreetSegment,97.92899408,FeatureClassBased,ReturnAll,,AddressRangeInterpolation,,,1,38.86315853,-77.08430124,Relaxed
40806,7-eleven 10693b 10693B,8616 Park St,,Vienna,VA,22180,6842,FAIRFAX,105,USCGeocoder,15.6258,1,4.1,,,2,Parcel,Success,LOCATION_TYPE_STREET_ADDRESS,Meters,ArealInterpolation,1092.695401,ArealInterpolationGeometricCentroid,Parcel,96,FeatureClassBased,ReturnAll,,ExactParcelCentroidPoint,,,1,38.88870664,-77.24279497,Relaxed
42019,El Latino & African Market 1,4611 Columbia Pike,,Arlington,VA,22204,3007,ARLINGTON,106,USCGeocoder,16.3145,1,4.1,,,2,Parcel,Success,LOCATION_TYPE_STREET_ADDRESS,Meters,ArealInterpolation,897.8490755,ArealInterpolationGeometricCentroid,Parcel,99,FeatureClassBased,ReturnAll,,ExactParcelCentroidPoint,,,1,38.85750742,-77.10714742,Relaxed
42024,Colonial Market,1605 Commonwealth Ave,,Alexandria,VA,22301,1903,ALEXANDRIA,107,USCGeocoder,31.2722,1,4.1,,,3,StreetSegmentInterpolation,Success,LOCATION_TYPE_STREET_ADDRESS,Meters,LinearInterpolation,2351.770683,LinearInterpolationAddressRange,StreetSegment,100,FeatureClassBased,ReturnAll,,AddressRangeInterpolation,,,1,38.82012736,-77.06293785,Exact
43445,Community Foodworks Tysons Farmers Market,8400 Westpark Drive,,Mclean,VA,22102,,FAIRFAX,108,USCGeocoder,0,1,4.1,,,2,Parcel,Success,LOCATION_TYPE_STREET_ADDRESS,Meters,ArealInterpolation,18003.4068,ArealInterpolationGeometricCentroid,Parcel,100,FeatureClassBased,ReturnAll,,ExactParcelCentroidPoint,,,1,38.92558115,-77.23467033,Exact
43538,7-Eleven 22685C,6327 S Kings Hwy,,Alexandria,VA,22306,1052,FAIRFAX,109,USCGeocoder,16.6029,1,4.1,,,3,StreetSegmentInterpolation,Success,LOCATION_TYPE_STREET_ADDRESS,Meters,LinearInterpolation,1682.20416,LinearInterpolationAddressRange,StreetSegment,98.99408284,FeatureClassBased,ReturnAll,,AddressRangeInterpolation,,,1,38.7797655,-77.08147843,Relaxed
43559,Pho Supplies Inc,3435 Carlin Springs Rd,,Falls Church,VA,22041,2802,FAIRFAX,110,USCGeocoder,31.5081,1,4.1,,,3,StreetSegmentInterpolation,Success,LOCATION_TYPE_STREET_ADDRESS,Meters,LinearInterpolation,30694.70535,LinearInterpolationAddressRange,StreetSegment,98.99408284,FeatureClassBased,ReturnAll,,AddressRangeInterpolation,,,1,38.85165435,-77.12252738,Relaxed
44298,Bismillah Groceries & Halal Meat,14513 Lee Jackson Memorial Hwy,Ste G,Chantilly,VA,20151,1510,FAIRFAX,111,USCGeocoder,0,1,4.1,,,3,StreetSegmentInterpolation,Success,LOCATION_TYPE_STREET_ADDRESS,Meters,LinearInterpolation,3427.678777,LinearInterpolationAddressRange,StreetSegment,100,FeatureClassBased,ReturnAll,,AddressRangeInterpolation,,,1,38.90116844,-77.44898074,Exact
44656,7-eleven Inc 10695a 10695A,6120 Lincolnia Rd,,Alexandria,VA,22312,2705,FAIRFAX,112,USCGeocoder,31.2568,1,4.1,,,3,StreetSegmentInterpolation,Success,LOCATION_TYPE_STREET_ADDRESS,Meters,LinearInterpolation,3588.268544,LinearInterpolationAddressRange,StreetSegment,100,FeatureClassBased,ReturnAll,,AddressRangeInterpolation,,,1,38.81779699,-77.13727509,Exact
44760,New A1 Grocery,2919 Arlington Dr,,Alexandria,VA,22306,2325,FAIRFAX,113,USCGeocoder,16.133,1,4.1,,,3,StreetSegmentInterpolation,Success,LOCATION_TYPE_STREET_ADDRESS,Meters,LinearInterpolation,4633.8405,LinearInterpolationAddressRange,StreetSegment,98.99408284,FeatureClassBased,ReturnAll,,AddressRangeInterpolation,,,1,38.75457635,-77.08126141,Relaxed
45600,Vietnam Supermarket,6609 Wilson Blvd,,Falls Church,VA,22044,3301,FAIRFAX,114,USCGeocoder,15.6479,1,4.1,,,3,StreetSegmentInterpolation,Success,LOCATION_TYPE_STREET_ADDRESS,Meters,LinearInterpolation,4785.071274,LinearInterpolationAddressRange,StreetSegment,100,FeatureClassBased,ReturnAll,,AddressRangeInterpolation,,,1,38.87348568,-77.15024704,Exact
45802,7-Eleven Inc F 10717A,1131 S George Mason Dr,,Arlington,VA,22204,3801,ARLINGTON,115,USCGeocoder,0,1,4.1,,,2,Parcel,Success,LOCATION_TYPE_STREET_ADDRESS,Meters,ArealInterpolation,623.3528519,ArealInterpolationGeometricCentroid,Parcel,95.32544379,FeatureClassBased,ReturnAll,,ExactParcelCentroidPoint,,,1,38.884356,-77.12522026,Relaxed
46827,Walgreens 15444,6715A Arlington Blvd,,Falls Church,VA,22042,2728,FAIRFAX,116,USCGeocoder,0,1,4.1,,,2,Parcel,Success,LOCATION_TYPE_STREET_ADDRESS,Meters,ArealInterpolation,8426.277823,ArealInterpolationGeometricCentroid,Parcel,93.63313609,FeatureClassBased,ReturnAll,,ExactParcelCentroidPoint,,,1,38.8685056,-77.17620583,Relaxed
48638,Megamart Express,5001 Columbia Pike,,Arlington,VA,22204,2906,ARLINGTON,117,USCGeocoder,15.6628,1,4.1,,,3,StreetSegmentInterpolation,Success,LOCATION_TYPE_STREET_ADDRESS,Meters,LinearInterpolation,1940.98334,LinearInterpolationAddressRange,StreetSegment,100,FeatureClassBased,ReturnAll,,AddressRangeInterpolation,,,1,38.85582217,-77.11262366,Exact
49349,ALDI 27,8256 Richmond Hwy,,Alexandria,VA,22309,8220,FAIRFAX,118,USCGeocoder,15.6237,1,4.1,,,3,StreetSegmentInterpolation,Success,LOCATION_TYPE_STREET_ADDRESS,Meters,LinearInterpolation,4257.691107,LinearInterpolationAddressRange,StreetSegment,98.99408284,FeatureClassBased,ReturnAll,,AddressRangeInterpolation,,,1,38.73379059,-77.09914979,Relaxed
49446,Nfd  Corporation Inc,3825B S George Mason Dr,,Falls Church,VA,22041,3763,FAIRFAX,119,USCGeocoder,15.6252,1,4.1,,,3,StreetSegmentInterpolation,Success,LOCATION_TYPE_STREET_ADDRESS,Meters,LinearInterpolation,3381.795073,LinearInterpolationAddressRange,StreetSegment,98.99408284,FeatureClassBased,ReturnAll,,AddressRangeInterpolation,,,1,38.84149891,-77.11998626,Relaxed
49550,7-eleven 10652C,427 Maple Ave E,,Vienna,VA,22180,4722,FAIRFAX,120,USCGeocoder,15.6304,1,4.1,,,3,StreetSegmentInterpolation,Success,LOCATION_TYPE_STREET_ADDRESS,Meters,LinearInterpolation,2999.157667,LinearInterpolationAddressRange,StreetSegment,100,FeatureClassBased,ReturnAll,,AddressRangeInterpolation,,,1,38.90751701,-77.25761155,Exact
50869,"7-Eleven, Inc F 32966B",4223 Fairfax Dr,,Arlington,VA,22203,1606,ARLINGTON,121,USCGeocoder,15.6288,1,4.1,,,2,Parcel,Success,LOCATION_TYPE_STREET_ADDRESS,Meters,ArealInterpolation,2150.678707,ArealInterpolationGeometricCentroid,Parcel,100,FeatureClassBased,ReturnAll,,ExactParcelCentroidPoint,,,1,38.88261436,-77.11154129,Exact
51109,Alexandria Old Town Farmers' Market,301 King St,,Alexandria,VA,22314,3211,ALEXANDRIA,122,USCGeocoder,15.6186,1,4.1,,,3,StreetSegmentInterpolation,Success,LOCATION_TYPE_STREET_ADDRESS,Meters,LinearInterpolation,2208.993042,LinearInterpolationAddressRange,StreetSegment,100,FeatureClassBased,ReturnAll,,AddressRangeInterpolation,,,1,38.80459511,-77.04254008,Exact
51163,Columbia Pike Farmers Market,2820 Columbia Pike,,Arlington,VA,22204,4412,ARLINGTON,123,USCGeocoder,15.628,1,4.1,,,2,Parcel,Success,LOCATION_TYPE_STREET_ADDRESS,Meters,ArealInterpolation,4283.516719,ArealInterpolationGeometricCentroid,Parcel,99,FeatureClassBased,ReturnAll,,ExactParcelCentroidPoint,,,1,38.86213444,-77.08659524,Relaxed
51755,Amigos Deli & Supermarket,8723 Cooper Rd,,Alexandria,VA,22309,3906,FAIRFAX,124,USCGeocoder,31.2496,1,4.1,,,3,StreetSegmentInterpolation,Success,LOCATION_TYPE_STREET_ADDRESS,Meters,LinearInterpolation,8429.308077,LinearInterpolationAddressRange,StreetSegment,98.99408284,FeatureClassBased,ReturnAll,,AddressRangeInterpolation,,,1,38.71997521,-77.1242512,Relaxed
51775,Global Food Alexandria Inc,1476 N Beauregard St,,Alexandria,VA,22311,5800,ALEXANDRIA,125,USCGeocoder,15.6307,1,4.1,,,3,StreetSegmentInterpolation,Success,LOCATION_TYPE_STREET_ADDRESS,Meters,LinearInterpolation,5280.446001,LinearInterpolationAddressRange,StreetSegment,100,FeatureClassBased,ReturnAll,,AddressRangeInterpolation,,,1,38.83085555,-77.12483118,Exact
52204,APlus 40057H,1818 Wiehle Ave,,Reston,VA,20190,5209,FAIRFAX,126,USCGeocoder,0,1,4.1,,,2,Parcel,Success,LOCATION_TYPE_STREET_ADDRESS,Meters,ArealInterpolation,4189.563342,ArealInterpolationGeometricCentroid,Parcel,100,FeatureClassBased,ReturnAll,,ExactParcelCentroidPoint,,,1,38.95145916,-77.33590383,Exact
52684,Food Star,206 W Glebe Rd,,Alexandria,VA,22305,2301,ALEXANDRIA,127,USCGeocoder,31.255,1,4.1,,,3,StreetSegmentInterpolation,Success,LOCATION_TYPE_STREET_ADDRESS,Meters,LinearInterpolation,10195.68907,LinearInterpolationAddressRange,StreetSegment,100,FeatureClassBased,ReturnAll,,AddressRangeInterpolation,,,1,38.83659672,-77.06158125,Exact
53791,7-Eleven Inc F 34627A,6030 Burke Commons Road,,Burke,VA,22015,2879,FAIRFAX,128,USCGeocoder,31.2542,1,4.1,,,3,StreetSegmentInterpolation,Success,LOCATION_TYPE_STREET_ADDRESS,Meters,LinearInterpolation,1757.621454,LinearInterpolationAddressRange,StreetSegment,100,FeatureClassBased,ReturnAll,,AddressRangeInterpolation,,,1,38.79380265,-77.30285095,Exact
54396,India Bazaar,13961 Metrotech Dr,,Chantilly,VA,20151,3240,FAIRFAX,129,USCGeocoder,31.2509,1,4.1,,,3,StreetSegmentInterpolation,Success,LOCATION_TYPE_STREET_ADDRESS,Meters,LinearInterpolation,10659.94405,LinearInterpolationAddressRange,StreetSegment,100,FeatureClassBased,ReturnAll,,AddressRangeInterpolation,,,1,38.89596694,-77.42672578,Exact
54488,CVS Pharmacy 10684,1020 Seneca Rd,,Great Falls,VA,22066,1373,FAIRFAX,130,USCGeocoder,15.625,1,4.1,,,2,Parcel,Success,LOCATION_TYPE_STREET_ADDRESS,Meters,ArealInterpolation,12958.33866,ArealInterpolationGeometricCentroid,Parcel,100,FeatureClassBased,ReturnAll,,ExactParcelCentroidPoint,,,1,39.00187014,-77.34446574,Exact
55196,Target 2790,2905 District Ave S,Ste 400,Fairfax,VA,22031,,FAIRFAX,131,USCGeocoder,31.2554,1,4.1,,,3,StreetSegmentInterpolation,Success,LOCATION_TYPE_STREET_ADDRESS,Meters,LinearInterpolation,6015.024612,LinearInterpolationAddressRange,StreetSegment,97.81065089,FeatureClassBased,ReturnAll,,AddressRangeInterpolation,,,1,38.87207404,-77.22980517,Relaxed
56043,Skyline Butcher Shop,3823 S George Mason Dr,Unit E,Falls Church,VA,22041,3763,FAIRFAX,132,USCGeocoder,15.6249,1,4.1,,,3,StreetSegmentInterpolation,Success,LOCATION_TYPE_STREET_ADDRESS,Meters,LinearInterpolation,3381.795073,LinearInterpolationAddressRange,StreetSegment,98.99408284,FeatureClassBased,ReturnAll,,AddressRangeInterpolation,,,1,38.84150834,-77.11995439,Relaxed
56141,"Fresh World Herndon, Inc.",1070 Elden St,,Herndon,VA,20170,3803,FAIRFAX,133,USCGeocoder,15.6245,1,4.1,,,3,StreetSegmentInterpolation,Success,LOCATION_TYPE_STREET_ADDRESS,Meters,LinearInterpolation,8520.712637,LinearInterpolationAddressRange,StreetSegment,100,FeatureClassBased,ReturnAll,,AddressRangeInterpolation,,,1,38.96599534,-77.39690762,Exact
56218,The Fresh Market 124,150 Branch Rd SE,,Vienna,VA,22180,4714,FAIRFAX,134,USCGeocoder,15.6207,1,4.1,,,2,Parcel,Success,LOCATION_TYPE_STREET_ADDRESS,Meters,ArealInterpolation,16252.18225,ArealInterpolationGeometricCentroid,Parcel,93.63313609,FeatureClassBased,ReturnAll,,ExactParcelCentroidPoint,,,1,38.90611224,-77.25702065,Relaxed
56547,Walgreens 11525,9372 Richmond Hwy,,Lorton,VA,22079,1827,FAIRFAX,135,USCGeocoder,0,1,4.1,,,2,Parcel,Success,LOCATION_TYPE_STREET_ADDRESS,Meters,ArealInterpolation,1689.762346,ArealInterpolationGeometricCentroid,Parcel,96,FeatureClassBased,ReturnAll,,ExactParcelCentroidPoint,,,1,38.70673824,-77.20503427,Relaxed
56551,Gilgamesh 426,6430 Brandon Ave,,Springfield,VA,22150,2513,FAIRFAX,136,USCGeocoder,78.1246,1,4.1,,,3,StreetSegmentInterpolation,Success,LOCATION_TYPE_STREET_ADDRESS,Meters,LinearInterpolation,9348.694068,LinearInterpolationAddressRange,StreetSegment,100,FeatureClassBased,ReturnAll,,AddressRangeInterpolation,,,1,38.78000672,-77.18320858,Exact
56915,Aldi 53,13920A Lee Jackson Memorial Hwy,,Chantilly,VA,20151,3202,FAIRFAX,137,USCGeocoder,46.8732,1,4.1,,,3,StreetSegmentInterpolation,Success,LOCATION_TYPE_STREET_ADDRESS,Meters,LinearInterpolation,8740.929034,LinearInterpolationAddressRange,StreetSegment,100,FeatureClassBased,ReturnAll,,AddressRangeInterpolation,,,1,38.89281499,-77.42781112,Exact
57674,Halalco Supermarket,5912 Leesburg Pike,,Falls Church,VA,22041,2202,FAIRFAX,138,USCGeocoder,31.2402,1,4.1,,,3,StreetSegmentInterpolation,Success,LOCATION_TYPE_STREET_ADDRESS,Meters,LinearInterpolation,3886.598062,LinearInterpolationAddressRange,StreetSegment,98.99408284,FeatureClassBased,ReturnAll,,AddressRangeInterpolation,,,1,38.85398361,-77.13571541,Relaxed
57772,Mobil Braddock Rd 11030,4133 Braddock Rd,,Alexandria,VA,22312,1020,FAIRFAX,139,USCGeocoder,15.624,1,4.1,,,2,Parcel,Success,LOCATION_TYPE_STREET_ADDRESS,Meters,ArealInterpolation,2253.477623,ArealInterpolationGeometricCentroid,Parcel,96,FeatureClassBased,ReturnAll,,ExactParcelCentroidPoint,,,1,38.83220347,-77.15184255,Relaxed
59615,Kare Baltena International Market,503 S Pickett St,,Alexandria,VA,22304,4707,ALEXANDRIA,140,USCGeocoder,31.25,1,4.1,,,3,StreetSegmentInterpolation,Success,LOCATION_TYPE_STREET_ADDRESS,Meters,LinearInterpolation,5440.025477,LinearInterpolationAddressRange,StreetSegment,100,FeatureClassBased,ReturnAll,,AddressRangeInterpolation,,,1,38.80724577,-77.12909797,Exact
59866,GIANT FOOD 747,1450 Northpoint Village Ctr,,Reston,VA,20194,1190,FAIRFAX,141,USCGeocoder,93.7381,1,4.1,,,9,AddressZIPCentroid,Success,LOCATION_TYPE_STREET_ADDRESS,Meters,ArealInterpolation,8320069.155,ArealInterpolationGeometricCentroid,USPSZip,60,FeatureClassBased,ReturnAll,,USPSZipAreaCentroid,,,1,38.980241,-77.339946,Relaxed;Soundex
60182,SAFEWAY  1417,9881 Georgetown Pike,,Great Falls,VA,22066,2617,FAIRFAX,142,USCGeocoder,31.2492,1,4.1,,,3,StreetSegmentInterpolation,Success,LOCATION_TYPE_STREET_ADDRESS,Meters,LinearInterpolation,4734.133098,LinearInterpolationAddressRange,StreetSegment,100,FeatureClassBased,ReturnAll,,AddressRangeInterpolation,,,1,38.99786104,-77.28793879,Exact
60186,SAFEWAY 2616,3043 Nutley St,,Fairfax,VA,22031,1931,FAIRFAX,143,USCGeocoder,15.6272,1,4.1,,,3,StreetSegmentInterpolation,Success,LOCATION_TYPE_STREET_ADDRESS,Meters,LinearInterpolation,1340.4889,LinearInterpolationAddressRange,StreetSegment,98.99408284,FeatureClassBased,ReturnAll,,AddressRangeInterpolation,,,1,38.87209811,-77.26309415,Relaxed
60582,SAFEWAY  1048,1525 Wilson Blvd,,Arlington,VA,22209,2411,ARLINGTON,144,USCGeocoder,0,1,4.1,,,2,Parcel,Success,LOCATION_TYPE_STREET_ADDRESS,Meters,ArealInterpolation,6858.323317,ArealInterpolationGeometricCentroid,Parcel,100,FeatureClassBased,ReturnAll,,ExactParcelCentroidPoint,,,1,38.89509531,-77.07531665,Exact
60635,SAFEWAY  4002,5727 Burke Centre Pkwy,,Burke,VA,22015,2204,FAIRFAX,145,USCGeocoder,31.2541,1,4.1,,,3,StreetSegmentInterpolation,Success,LOCATION_TYPE_STREET_ADDRESS,Meters,LinearInterpolation,6811.168337,LinearInterpolationAddressRange,StreetSegment,100,FeatureClassBased,ReturnAll,,AddressRangeInterpolation,,,1,38.79859645,-77.32168944,Exact
61378,Freshfarm Rosslyn Market,1201 Wilson Blvd,,Arlington,VA,22209,2304,ARLINGTON,146,USCGeocoder,15.6275,1,4.1,,,3,StreetSegmentInterpolation,Success,LOCATION_TYPE_STREET_ADDRESS,Meters,LinearInterpolation,1523.768586,LinearInterpolationAddressRange,StreetSegment,100,FeatureClassBased,ReturnAll,,AddressRangeInterpolation,,,1,38.895181,-77.07080973,Exact
61693,GLEBE MARKET,300 N Glebe Rd,,Arlington,VA,22203,3308,ARLINGTON,147,USCGeocoder,15.6226,1,4.1,,,3,StreetSegmentInterpolation,Success,LOCATION_TYPE_STREET_ADDRESS,Meters,LinearInterpolation,1888.383497,LinearInterpolationAddressRange,StreetSegment,100,FeatureClassBased,ReturnAll,,AddressRangeInterpolation,,,1,38.87383341,-77.10520168,Exact
61695,SAFEWAY  4007,3713 Lee Hwy,,Arlington,VA,22207,3720,ARLINGTON,148,USCGeocoder,0,1,4.1,,,2,Parcel,Success,LOCATION_TYPE_STREET_ADDRESS,Meters,ArealInterpolation,12345.32045,ArealInterpolationGeometricCentroid,Parcel,100,FeatureClassBased,ReturnAll,,ExactParcelCentroidPoint,,,1,38.89667294,-77.10539737,Exact
61971,SAFEWAY  0005,11120 South Lakes Dr,,Reston,VA,20191,4327,FAIRFAX,149,USCGeocoder,15.6235,1,4.1,,,3,StreetSegmentInterpolation,Success,LOCATION_TYPE_STREET_ADDRESS,Meters,LinearInterpolation,6095.648851,LinearInterpolationAddressRange,StreetSegment,100,FeatureClassBased,ReturnAll,,AddressRangeInterpolation,,,1,38.9395116,-77.32876034,Exact
62405,Otncp Thursday Farmers & Artisans Market NA,901 N Royal St,,Alexandria,VA,22314,1527,ALEXANDRIA,150,USCGeocoder,31.2525,1,4.1,,,3,StreetSegmentInterpolation,Success,LOCATION_TYPE_STREET_ADDRESS,Meters,LinearInterpolation,2862.829687,LinearInterpolationAddressRange,StreetSegment,100,FeatureClassBased,ReturnAll,,AddressRangeInterpolation,,,1,38.81370974,-77.04159471,Exact
62526,WHOLE FOODS MARKET 10061,11660 Plaza America Dr,,Reston,VA,20190,4700,FAIRFAX,151,USCGeocoder,109.3752,1,4.1,,,3,StreetSegmentInterpolation,Success,LOCATION_TYPE_STREET_ADDRESS,Meters,LinearInterpolation,17446.63958,LinearInterpolationAddressRange,StreetSegment,91.71597633,FeatureClassBased,ReturnAll,,AddressRangeInterpolation,,,1,38.95204683,-77.34759104,Relaxed;Soundex
63002,7-eleven 40060a 40060A,2601 Quincy Adams Dr,,Herndon,VA,20171,2540,FAIRFAX,152,USCGeocoder,0,1,4.1,,,2,Parcel,Success,LOCATION_TYPE_STREET_ADDRESS,Meters,ArealInterpolation,3802.902276,ArealInterpolationGeometricCentroid,Parcel,96,FeatureClassBased,ReturnAll,,ExactParcelCentroidPoint,,,1,38.92552635,-77.37657485,Relaxed
63187,SAFEWAY 1462,5821 Crossroads Center Way,,Falls Church,VA,22041,2307,FAIRFAX,153,USCGeocoder,46.8668,1,4.1,,,3,StreetSegmentInterpolation,Success,LOCATION_TYPE_STREET_ADDRESS,Meters,LinearInterpolation,6753.78484,LinearInterpolationAddressRange,StreetSegment,98.99408284,FeatureClassBased,ReturnAll,,AddressRangeInterpolation,,,1,38.85248074,-77.13018903,Relaxed
63263,Food Lion 1322,3059 Centreville Rd,,Herndon,VA,20171,3709,FAIRFAX,154,USCGeocoder,15.6356,1,4.1,,,3,StreetSegmentInterpolation,Success,LOCATION_TYPE_STREET_ADDRESS,Meters,LinearInterpolation,6252.572428,LinearInterpolationAddressRange,StreetSegment,98.99408284,FeatureClassBased,ReturnAll,,AddressRangeInterpolation,,,1,38.9222127,-77.41726672,Relaxed
63813,SAFEWAY  1431,12200 W Ox Rd,,Fairfax,VA,22033,,FAIRFAX,155,USCGeocoder,109.3702,1,4.1,,,9,AddressZIPCentroid,Success,LOCATION_TYPE_STREET_ADDRESS,Meters,ArealInterpolation,19769530.29,ArealInterpolationGeometricCentroid,USPSZip,60,FeatureClassBased,ReturnAll,,USPSZipAreaCentroid,,,1,38.879674,-77.388079,Relaxed;Soundex
65219,Afghan Market LLC,5715 Edsall Rd,,Alexandria,VA,22304,4711,ALEXANDRIA,156,USCGeocoder,15.6279,1,4.1,,,3,StreetSegmentInterpolation,Success,LOCATION_TYPE_STREET_ADDRESS,Meters,LinearInterpolation,4401.066525,LinearInterpolationAddressRange,StreetSegment,100,FeatureClassBased,ReturnAll,,AddressRangeInterpolation,,,1,38.80777362,-77.13043488,Exact
66008,GIANT FOOD 232,5870 Kingstowne Blvd,,Alexandria,VA,22315,5798,FAIRFAX,157,USCGeocoder,31.2612,1,4.1,,,3,StreetSegmentInterpolation,Success,LOCATION_TYPE_STREET_ADDRESS,Meters,LinearInterpolation,10357.88179,LinearInterpolationAddressRange,StreetSegment,98.99408284,FeatureClassBased,ReturnAll,,AddressRangeInterpolation,,,1,38.77111288,-77.13649339,Relaxed
66806,WHOLE FOODS MARKET 10042,2700 Wilson Blvd,,Arlington,VA,22201,3804,ARLINGTON,158,USCGeocoder,15.6137,1,4.1,,,2,Parcel,Success,LOCATION_TYPE_STREET_ADDRESS,Meters,ArealInterpolation,1236.925709,ArealInterpolationGeometricCentroid,Parcel,100,FeatureClassBased,ReturnAll,,ExactParcelCentroidPoint,,,1,38.88923972,-77.0908958,Exact
67110,AFGHAN MINI MARKET,6566 Backlick Rd,,Springfield,VA,22150,2801,FAIRFAX,159,USCGeocoder,31.2587,1,4.1,,,3,StreetSegmentInterpolation,Success,LOCATION_TYPE_STREET_ADDRESS,Meters,LinearInterpolation,12175.95289,LinearInterpolationAddressRange,StreetSegment,100,FeatureClassBased,ReturnAll,,AddressRangeInterpolation,,,1,38.77625961,-77.183785,Exact
67677,WHOLE FOODS MARKET 10049,7511 Leesburg Pike,,Falls Church,VA,22043,2105,FAIRFAX,160,USCGeocoder,15.6236,1,4.1,,,3,StreetSegmentInterpolation,Success,LOCATION_TYPE_STREET_ADDRESS,Meters,LinearInterpolation,4462.692134,LinearInterpolationAddressRange,StreetSegment,98.99408284,FeatureClassBased,ReturnAll,,AddressRangeInterpolation,,,1,38.90377782,-77.20449148,Relaxed
67688,Madina Grocery,376 Elden St,,Herndon,VA,20170,4818,FAIRFAX,161,USCGeocoder,15.6251,1,4.1,,,3,StreetSegmentInterpolation,Success,LOCATION_TYPE_STREET_ADDRESS,Meters,LinearInterpolation,3092.389757,LinearInterpolationAddressRange,StreetSegment,100,FeatureClassBased,ReturnAll,,AddressRangeInterpolation,,,1,38.96764584,-77.37424622,Exact
67797,Showa Baltena,3813B S George Mason Dr,,Falls Church,VA,22041,3763,FAIRFAX,162,USCGeocoder,0,1,4.1,,,3,StreetSegmentInterpolation,Success,LOCATION_TYPE_STREET_ADDRESS,Meters,LinearInterpolation,2795.463165,LinearInterpolationAddressRange,StreetSegment,98.99408284,FeatureClassBased,ReturnAll,,AddressRangeInterpolation,,,1,38.84173248,-77.11922825,Relaxed
68478,Food Star,5521 Leesburg Pike,,Falls Church,VA,22041,3100,FAIRFAX,163,USCGeocoder,15.6255,1,4.1,,,2,Parcel,Success,LOCATION_TYPE_STREET_ADDRESS,Meters,ArealInterpolation,6141.115014,ArealInterpolationGeometricCentroid,Parcel,96,FeatureClassBased,ReturnAll,,ExactParcelCentroidPoint,,,1,38.84761302,-77.12381112,Relaxed
69536,CVS Pharmacy 10320,3401 Charles St,,Falls Church,VA,22041,1901,FAIRFAX,164,USCGeocoder,0,1,4.1,,,2,Parcel,Success,LOCATION_TYPE_STREET_ADDRESS,Meters,ArealInterpolation,852.080691,ArealInterpolationGeometricCentroid,Parcel,96,FeatureClassBased,ReturnAll,,ExactParcelCentroidPoint,,,1,38.85338313,-77.13556655,Relaxed
70182,Leyu Market,5820 Seminary Rd,Ste E,Falls Church,VA,22041,3045,FAIRFAX,165,USCGeocoder,15.6186,1,4.1,,,2,Parcel,Success,LOCATION_TYPE_STREET_ADDRESS,Meters,ArealInterpolation,8436.952103,ArealInterpolationGeometricCentroid,Parcel,96,FeatureClassBased,ReturnAll,,ExactParcelCentroidPoint,,,1,38.84738195,-77.12777931,Relaxed
70969,Trader Joe's 654,14100 Lee Hwy,,Centreville,VA,20120,1913,FAIRFAX,166,USCGeocoder,15.6249,1,4.1,,,2,Parcel,Success,LOCATION_TYPE_STREET_ADDRESS,Meters,ArealInterpolation,37648.54485,ArealInterpolationGeometricCentroid,Parcel,100,FeatureClassBased,ReturnAll,,ExactParcelCentroidPoint,,,1,38.83976016,-77.43320745,Exact
71546,MIKES Q MART,2266 Huntington Ave,,Alexandria,VA,22303,1508,FAIRFAX,167,USCGeocoder,31.2524,1,4.1,,,3,StreetSegmentInterpolation,Success,LOCATION_TYPE_STREET_ADDRESS,Meters,LinearInterpolation,4957.048074,LinearInterpolationAddressRange,StreetSegment,98.99408284,FeatureClassBased,ReturnAll,,AddressRangeInterpolation,,,1,38.7939553,-77.06992897,Relaxed
72306,Target Store 1893,5115 Leesburg Pike,,Falls Church,VA,22041,3231,FAIRFAX,168,USCGeocoder,0,1,4.1,,,2,Parcel,Success,LOCATION_TYPE_STREET_ADDRESS,Meters,ArealInterpolation,43770.66854,ArealInterpolationGeometricCentroid,Parcel,96,FeatureClassBased,ReturnAll,,ExactParcelCentroidPoint,,,1,38.84495528,-77.11810989,Relaxed
72312,Target Store 1827,14391 Chantilly Crossing Ln,,Chantilly,VA,20151,2118,FAIRFAX,169,USCGeocoder,125.002,1,4.1,,,9,AddressZIPCentroid,Success,LOCATION_TYPE_STREET_ADDRESS,Meters,ArealInterpolation,40587317.75,ArealInterpolationGeometricCentroid,USPSZip,60,FeatureClassBased,ReturnAll,,USPSZipAreaCentroid,,,1,38.888306,-77.453725,Relaxed;Soundex
72593,Harris Teeter 398,735 N Saint Asaph St,,Alexandria,VA,22314,1911,ALEXANDRIA,170,USCGeocoder,109.3813,1,4.1,,,3,StreetSegmentInterpolation,Success,LOCATION_TYPE_STREET_ADDRESS,Meters,LinearInterpolation,2895.806086,LinearInterpolationAddressRange,StreetSegment,100,FeatureClassBased,ReturnAll,,AddressRangeInterpolation,,,1,38.81210902,-77.0441922,Exact
72814,SAN MIGUEL MARKET,5900 Leesburg Pike,Ste C,Falls Church,VA,22041,2229,FAIRFAX,171,USCGeocoder,15.6295,1,4.1,,,2,Parcel,Success,LOCATION_TYPE_STREET_ADDRESS,Meters,ArealInterpolation,14702.2392,ArealInterpolationGeometricCentroid,Parcel,96,FeatureClassBased,ReturnAll,,ExactParcelCentroidPoint,,,1,38.8544325,-77.13557429,Relaxed
73413,WHOLE FOODS MARKET 10056,8402 Old Keene Mill Rd,,Springfield,VA,22152,2302,FAIRFAX,172,USCGeocoder,15.6246,1,4.1,,,2,Parcel,Success,LOCATION_TYPE_STREET_ADDRESS,Meters,ArealInterpolation,40873.17146,ArealInterpolationGeometricCentroid,Parcel,96,FeatureClassBased,ReturnAll,,ExactParcelCentroidPoint,,,1,38.77967443,-77.2356576,Relaxed
73477,YAS BAKERY & GROCERY,137 Church St NW,,Vienna,VA,22180,4508,FAIRFAX,173,USCGeocoder,0,1,4.1,,,2,Parcel,Success,LOCATION_TYPE_STREET_ADDRESS,Meters,ArealInterpolation,1023.624072,ArealInterpolationGeometricCentroid,Parcel,93.63313609,FeatureClassBased,ReturnAll,,ExactParcelCentroidPoint,,,1,38.90149129,-77.2677501,Relaxed
74458,HAN AH REUM SUPERMARKET,8103 Lee Hwy,,Falls Church,VA,22042,1111,FAIRFAX,174,USCGeocoder,31.2509,1,4.1,,,3,StreetSegmentInterpolation,Success,LOCATION_TYPE_STREET_ADDRESS,Meters,LinearInterpolation,4559.445403,LinearInterpolationAddressRange,StreetSegment,98.99408284,FeatureClassBased,ReturnAll,,AddressRangeInterpolation,,,1,38.87489028,-77.22457634,Relaxed
76738,7-eleven Store 10787B,8629 Richmond Hwy,,Alexandria,VA,22309,4201,FAIRFAX,175,USCGeocoder,15.6256,1,4.1,,,2,Parcel,Success,LOCATION_TYPE_STREET_ADDRESS,Meters,ArealInterpolation,1526.164225,ArealInterpolationGeometricCentroid,Parcel,96,FeatureClassBased,ReturnAll,,ExactParcelCentroidPoint,,,1,38.72285301,-77.11983517,Relaxed
77659,Great Wall Supermarket of VA,2982 Gallows Rd,,Falls Church,VA,22042,1018,FAIRFAX,176,USCGeocoder,46.8777,1,4.1,,,3,StreetSegmentInterpolation,Success,LOCATION_TYPE_STREET_ADDRESS,Meters,LinearInterpolation,5038.420447,LinearInterpolationAddressRange,StreetSegment,98.99408284,FeatureClassBased,ReturnAll,,AddressRangeInterpolation,,,1,38.8697508,-77.22734187,Relaxed
79478,MOM's Organic Market 3,3831 Mount Vernon Ave,,Alexandria,VA,22305,2410,ALEXANDRIA,177,USCGeocoder,15.6351,1,4.1,,,3,StreetSegmentInterpolation,Success,LOCATION_TYPE_STREET_ADDRESS,Meters,LinearInterpolation,1309.631472,LinearInterpolationAddressRange,StreetSegment,100,FeatureClassBased,ReturnAll,,AddressRangeInterpolation,,,1,38.84088078,-77.06304694,Exact
79760,Whole Foods Market 10185,1700 Duke St,,Alexandria,VA,22314,6103,ALEXANDRIA,178,USCGeocoder,31.2567,1,4.1,,,3,StreetSegmentInterpolation,Success,LOCATION_TYPE_STREET_ADDRESS,Meters,LinearInterpolation,1173.07046,LinearInterpolationAddressRange,StreetSegment,100,FeatureClassBased,ReturnAll,,AddressRangeInterpolation,,,1,38.80423381,-77.05954441,Exact
81021,FAIR PRICE,5703 Edsall Rd,Unit C,Alexandria,VA,22304,4711,ALEXANDRIA,179,USCGeocoder,15.6359,1,4.1,,,3,StreetSegmentInterpolation,Success,LOCATION_TYPE_STREET_ADDRESS,Meters,LinearInterpolation,4401.066525,LinearInterpolationAddressRange,StreetSegment,100,FeatureClassBased,ReturnAll,,AddressRangeInterpolation,,,1,38.80777957,-77.13019449,Exact
81070,LA BODEGA,6170 Arlington Blvd,,Falls Church,VA,22044,2902,FAIRFAX,180,USCGeocoder,15.6227,1,4.1,,,3,StreetSegmentInterpolation,Success,LOCATION_TYPE_STREET_ADDRESS,Meters,LinearInterpolation,5304.761784,LinearInterpolationAddressRange,StreetSegment,98.99408284,FeatureClassBased,ReturnAll,,AddressRangeInterpolation,,,1,38.87129084,-77.15277328,Relaxed
81921,ALDI 180,5725 Columbia Pike,,Columbia Pike,VA,22041,2901,FAIRFAX,181,USCGeocoder,15.6284,1,4.1,,,3,StreetSegmentInterpolation,Success,LOCATION_TYPE_STREET_ADDRESS,Meters,LinearInterpolation,3243.100588,LinearInterpolationAddressRange,StreetSegment,98.99408284,FeatureClassBased,ReturnAll,,AddressRangeInterpolation,,,1,38.85119336,-77.127365,Relaxed
81995,Americana Grocery of VA,6128 Columbia Pike,,Falls Church,VA,22041,3608,FAIRFAX,182,USCGeocoder,15.6241,1,4.1,,,3,StreetSegmentInterpolation,Success,LOCATION_TYPE_STREET_ADDRESS,Meters,LinearInterpolation,3844.638956,LinearInterpolationAddressRange,StreetSegment,98.99408284,FeatureClassBased,ReturnAll,,AddressRangeInterpolation,,,1,38.84448956,-77.14157412,Relaxed
83460,Walmart 2015,13059 Fair Lakes Parkway,,Fairfax,VA,22033,,FAIRFAX,183,USCGeocoder,109.3863,1,4.1,,,9,AddressZIPCentroid,Success,LOCATION_TYPE_STREET_ADDRESS,Meters,ArealInterpolation,19769530.29,ArealInterpolationGeometricCentroid,USPSZip,60,FeatureClassBased,ReturnAll,,USPSZipAreaCentroid,,,1,38.879674,-77.388079,Relaxed;Soundex
84585,Target 1005,10301 New Guinea Rd,,Fairfax,VA,22032,3268,FAIRFAX,184,USCGeocoder,0,1,4.1,,,2,Parcel,Success,LOCATION_TYPE_STREET_ADDRESS,Meters,ArealInterpolation,41996.2158,ArealInterpolationGeometricCentroid,Parcel,99,FeatureClassBased,ReturnAll,,ExactParcelCentroidPoint,,,1,38.79880016,-77.30114228,Relaxed
84740,TARGET STORES 1088,12197 Sunset Hills Rd,,Reston,VA,20190,3208,FAIRFAX,185,USCGeocoder,0,1,4.1,,,2,Parcel,Success,LOCATION_TYPE_STREET_ADDRESS,Meters,ArealInterpolation,68598.78324,ArealInterpolationGeometricCentroid,Parcel,100,FeatureClassBased,ReturnAll,,ExactParcelCentroidPoint,,,1,38.95490449,-77.37043533,Exact
84925,Harris Teeter 308,2675 Avenir Pl,,Vienna,VA,22180,7176,FAIRFAX,186,USCGeocoder,93.7611,1,4.1,,,9,AddressZIPCentroid,Success,LOCATION_TYPE_STREET_ADDRESS,Meters,ArealInterpolation,15070035.28,ArealInterpolationGeometricCentroid,USPSZip,60,FeatureClassBased,ReturnAll,,USPSZipAreaCentroid,,,1,38.896094,-77.256034,Relaxed;Soundex
85205,Safeway 1689,413 Elden St,,Herndon,VA,20170,4512,FAIRFAX,187,USCGeocoder,15.631,1,4.1,,,3,StreetSegmentInterpolation,Success,LOCATION_TYPE_STREET_ADDRESS,Meters,LinearInterpolation,3092.389757,LinearInterpolationAddressRange,StreetSegment,100,FeatureClassBased,ReturnAll,,AddressRangeInterpolation,,,1,38.96748491,-77.37435087,Exact
86315,Shoppers Food Warehouse 2384,9409 Lorton Market St,,Lorton,VA,22079,1963,FAIRFAX,188,USCGeocoder,15.6239,1,4.1,,,3,StreetSegmentInterpolation,Success,LOCATION_TYPE_STREET_ADDRESS,Meters,LinearInterpolation,3565.918675,LinearInterpolationAddressRange,StreetSegment,100,FeatureClassBased,ReturnAll,,AddressRangeInterpolation,,,1,38.70120644,-77.2218328,Exact
88091,7-Eleven Inc F 27672A,4970 Columbia Pike,,Arlington,VA,22204,2905,ARLINGTON,189,USCGeocoder,0,1,4.1,,,2,Parcel,Success,LOCATION_TYPE_STREET_ADDRESS,Meters,ArealInterpolation,1112.938392,ArealInterpolationGeometricCentroid,Parcel,99,FeatureClassBased,ReturnAll,,ExactParcelCentroidPoint,,,1,38.855837,-77.1115108,Relaxed
88277,7-Eleven Inc F 10725A,4949 Seminary Rd,,Alexandria,VA,22311,1835,ALEXANDRIA,190,USCGeocoder,31.2502,1,4.1,,,3,StreetSegmentInterpolation,Success,LOCATION_TYPE_STREET_ADDRESS,Meters,LinearInterpolation,643.2394024,LinearInterpolationAddressRange,StreetSegment,100,FeatureClassBased,ReturnAll,,AddressRangeInterpolation,,,1,38.83265343,-77.11555092,Exact
88285,7-Eleven Inc F 10719A,1025 W Glebe Rd,,Alexandria,VA,22305,1458,ALEXANDRIA,191,USCGeocoder,15.6287,1,4.1,,,3,StreetSegmentInterpolation,Success,LOCATION_TYPE_STREET_ADDRESS,Meters,LinearInterpolation,9961.065878,LinearInterpolationAddressRange,StreetSegment,100,FeatureClassBased,ReturnAll,,AddressRangeInterpolation,,,1,38.84266789,-77.07533645,Exact
89115,7-Eleven Inc F 10779A,2 S Jordan St,,Alexandria,VA,22304,4914,ALEXANDRIA,192,USCGeocoder,15.6165,1,4.1,,,3,StreetSegmentInterpolation,Success,LOCATION_TYPE_STREET_ADDRESS,Meters,LinearInterpolation,3166.770789,LinearInterpolationAddressRange,StreetSegment,100,FeatureClassBased,ReturnAll,,AddressRangeInterpolation,,,1,38.81191203,-77.10954005,Exact
89826,The Fresh Market 174,3680 King St,,Alexandria,VA,22302,1908,ALEXANDRIA,193,USCGeocoder,15.6201,1,4.1,,,3,StreetSegmentInterpolation,Success,LOCATION_TYPE_STREET_ADDRESS,Meters,LinearInterpolation,6461.441201,LinearInterpolationAddressRange,StreetSegment,100,FeatureClassBased,ReturnAll,,AddressRangeInterpolation,,,1,38.82988943,-77.09139619,Exact
89972,La Despensa Grocery LLC,2903 Arlington Dr,,Alexandria,VA,22306,2325,FAIRFAX,194,USCGeocoder,15.625,1,4.1,,,3,StreetSegmentInterpolation,Success,LOCATION_TYPE_STREET_ADDRESS,Meters,LinearInterpolation,4633.8405,LinearInterpolationAddressRange,StreetSegment,98.99408284,FeatureClassBased,ReturnAll,,AddressRangeInterpolation,,,1,38.75458071,-77.08107198,Relaxed
90059,EL GRANDE,6901 Hechinger Dr,,Springfield,VA,22151,4105,FAIRFAX,195,USCGeocoder,62.5034,1,4.1,,,3,StreetSegmentInterpolation,Success,LOCATION_TYPE_STREET_ADDRESS,Meters,LinearInterpolation,1365.490169,LinearInterpolationAddressRange,StreetSegment,100,FeatureClassBased,ReturnAll,,AddressRangeInterpolation,,,1,38.79544354,-77.1830194,Exact
90214,African Grocery And Meat Market,6243 Little River Tpke,,Alexandria,VA,22312,1716,FAIRFAX,196,USCGeocoder,31.2533,1,4.1,,,3,StreetSegmentInterpolation,Success,LOCATION_TYPE_STREET_ADDRESS,Meters,LinearInterpolation,2524.457551,LinearInterpolationAddressRange,StreetSegment,100,FeatureClassBased,ReturnAll,,AddressRangeInterpolation,,,1,38.81702823,-77.14060895,Exact
90277,FRIENDLY MART,2727 Duke St,,Alexandria,VA,22314,4589,ALEXANDRIA,197,USCGeocoder,0,1,4.1,,,3,StreetSegmentInterpolation,Success,LOCATION_TYPE_STREET_ADDRESS,Meters,LinearInterpolation,2810.451955,LinearInterpolationAddressRange,StreetSegment,100,FeatureClassBased,ReturnAll,,AddressRangeInterpolation,,,1,38.80705252,-77.0775424,Exact
90417,MAKOLA INTERNATIONAL MARKET,7856 Richmond Hwy,,Alexandria,VA,22306,7824,FAIRFAX,198,USCGeocoder,31.256,1,4.1,,,3,StreetSegmentInterpolation,Success,LOCATION_TYPE_STREET_ADDRESS,Meters,LinearInterpolation,4998.323687,LinearInterpolationAddressRange,StreetSegment,98.99408284,FeatureClassBased,ReturnAll,,AddressRangeInterpolation,,,1,38.74402493,-77.08429176,Relaxed
90453,Freshfarm Arlington Courthouse Farmers Market n/a,1425 N Courthouse Rd,,Arlington,VA,22201,2685,ARLINGTON,199,USCGeocoder,187.5016,1,4.1,,,9,AddressZIPCentroid,Success,LOCATION_TYPE_STREET_ADDRESS,Meters,ArealInterpolation,6058556.551,ArealInterpolationGeometricCentroid,USPSZip,60,FeatureClassBased,ReturnAll,,USPSZipAreaCentroid,,,1,38.887343,-77.098842,Relaxed;Soundex
90669,Lidl 1469,2901 Gallows Rd,,Falls Church,VA,22042,1007,FAIRFAX,200,USCGeocoder,15.6219,1,4.1,,,3,StreetSegmentInterpolation,Success,LOCATION_TYPE_STREET_ADDRESS,Meters,LinearInterpolation,3922.207251,LinearInterpolationAddressRange,StreetSegment,98.99408284,FeatureClassBased,ReturnAll,,AddressRangeInterpolation,,,1,38.87272193,-77.22690619,Relaxed
90686,7-Eleven Inc F 10770A,5638 MT VERNON HWY,,ALEXANDRIA,VA,22309,,FAIRFAX,201,USCGeocoder,125.0019,1,4.1,,,9,AddressZIPCentroid,Success,LOCATION_TYPE_STREET_ADDRESS,Meters,ArealInterpolation,21701974.55,ArealInterpolationGeometricCentroid,USPSZip,60,FeatureClassBased,ReturnAll,,USPSZipAreaCentroid,,,1,38.727866,-77.109317,Relaxed;Soundex
90771,7-Eleven Inc F 23242A,3003 Columbia Pike,,Arlington,VA,22204,4338,ARLINGTON,202,USCGeocoder,0,1,4.1,,,2,Parcel,Success,LOCATION_TYPE_STREET_ADDRESS,Meters,ArealInterpolation,3513.683085,ArealInterpolationGeometricCentroid,Parcel,99,FeatureClassBased,ReturnAll,,ExactParcelCentroidPoint,,,1,38.8625966,-77.08841881,Relaxed
90773,7-Eleven Inc F 10753A,2901 Arlington Dr,,Alexandria,VA,22306,2325,FAIRFAX,203,USCGeocoder,0,1,4.1,,,2,Parcel,Success,LOCATION_TYPE_STREET_ADDRESS,Meters,ArealInterpolation,8153.33882,ArealInterpolationGeometricCentroid,Parcel,96,FeatureClassBased,ReturnAll,,ExactParcelCentroidPoint,,,1,38.75405593,-77.08182283,Relaxed
90928,7-Eleven Inc F 28511A,426 23rd St S,,Arlington,VA,22202,2516,ARLINGTON,204,USCGeocoder,140.6212,1,4.1,,,3,StreetSegmentInterpolation,Success,LOCATION_TYPE_STREET_ADDRESS,Meters,LinearInterpolation,1762.731917,LinearInterpolationAddressRange,StreetSegment,100,FeatureClassBased,ReturnAll,,AddressRangeInterpolation,,,1,38.8532997,-77.0528253,Exact
90935,PAK BANGLA BAZAAR INC,6347 Columbia Pike,Ste B,Falls Church,VA,22041,1242,FAIRFAX,205,USCGeocoder,15.6282,1,4.1,,,3,StreetSegmentInterpolation,Success,LOCATION_TYPE_STREET_ADDRESS,Meters,LinearInterpolation,7006.274886,LinearInterpolationAddressRange,StreetSegment,98.99408284,FeatureClassBased,ReturnAll,,AddressRangeInterpolation,,,1,38.83734544,-77.15562686,Relaxed
91317,7-Eleven Inc F 22343A,4689 King St,,Arlington,VA,22206,1045,ARLINGTON,206,USCGeocoder,15.623,1,4.1,,,3,StreetSegmentInterpolation,Success,LOCATION_TYPE_STREET_ADDRESS,Meters,LinearInterpolation,2684.752784,LinearInterpolationAddressRange,StreetSegment,100,FeatureClassBased,ReturnAll,,AddressRangeInterpolation,,,1,38.84283241,-77.10895265,Exact
91463,7-Eleven Inc F 10751A,3100 Lockheed Blvd,,Alexandria,VA,22306,2001,FAIRFAX,207,USCGeocoder,0,1,4.1,,,2,Parcel,Success,LOCATION_TYPE_STREET_ADDRESS,Meters,ArealInterpolation,1415.15364,ArealInterpolationGeometricCentroid,Parcel,96,FeatureClassBased,ReturnAll,,ExactParcelCentroidPoint,,,1,38.75937009,-77.08498273,Relaxed
91833,7-Eleven Inc F 15801A,7907 Rolling Rd,,Springfield,VA,22153,2822,FAIRFAX,208,USCGeocoder,0,1,4.1,,,2,Parcel,Success,LOCATION_TYPE_STREET_ADDRESS,Meters,ArealInterpolation,1841.051163,ArealInterpolationGeometricCentroid,Parcel,96,FeatureClassBased,ReturnAll,,ExactParcelCentroidPoint,,,1,38.74301571,-77.21126874,Relaxed
92237,Lotte Plaza Market,5204 Port Royal Rd,,Springfield,VA,22151,2102,FAIRFAX,209,USCGeocoder,31.2528,1,4.1,,,3,StreetSegmentInterpolation,Success,LOCATION_TYPE_STREET_ADDRESS,Meters,LinearInterpolation,19816.31602,LinearInterpolationAddressRange,StreetSegment,98.99408284,FeatureClassBased,ReturnAll,,AddressRangeInterpolation,,,1,38.81083708,-77.22169834,Relaxed
93174,Harris Teeter 133,4641 Duke St,,Alexandria,VA,22304,2505,ALEXANDRIA,210,USCGeocoder,15.6245,1,4.1,,,3,StreetSegmentInterpolation,Success,LOCATION_TYPE_STREET_ADDRESS,Meters,LinearInterpolation,7225.578331,LinearInterpolationAddressRange,StreetSegment,100,FeatureClassBased,ReturnAll,,AddressRangeInterpolation,,,1,38.81208992,-77.11096643,Exact
94038,7-eleven 35372b 35372B,2906 N Sycamore St,,Arlington,VA,22207,1135,ARLINGTON,211,USCGeocoder,62.4991,1,4.1,,,3,StreetSegmentInterpolation,Success,LOCATION_TYPE_STREET_ADDRESS,Meters,LinearInterpolation,3570.747434,LinearInterpolationAddressRange,StreetSegment,100,FeatureClassBased,ReturnAll,,AddressRangeInterpolation,,,1,38.89905834,-77.15695163,Exact
94174,Whole Foods Market 10223,4501 Market Commons Dr,,Fairfax,VA,22033,6003,FAIRFAX,212,USCGeocoder,62.5034,1,4.1,,,3,StreetSegmentInterpolation,Success,LOCATION_TYPE_STREET_ADDRESS,Meters,LinearInterpolation,3032.845078,LinearInterpolationAddressRange,StreetSegment,98.99408284,FeatureClassBased,ReturnAll,,AddressRangeInterpolation,,,1,38.85807338,-77.37806242,Relaxed
94851,7-Eleven Inc F 10771A,8226 Russell Rd,,Alexandria,VA,22309,8218,FAIRFAX,213,USCGeocoder,0,1,4.1,,,3,StreetSegmentInterpolation,Success,LOCATION_TYPE_STREET_ADDRESS,Meters,LinearInterpolation,4195.722906,LinearInterpolationAddressRange,StreetSegment,98.99408284,FeatureClassBased,ReturnAll,,AddressRangeInterpolation,,,1,38.73405236,-77.10129218,Relaxed
95228,7-Eleven Inc F 10773A,2800 Beacon Hill Rd,,Alexandria,VA,22306,1614,FAIRFAX,214,USCGeocoder,15.6257,1,4.1,,,2,Parcel,Success,LOCATION_TYPE_STREET_ADDRESS,Meters,ArealInterpolation,2195.807927,ArealInterpolationGeometricCentroid,Parcel,96,FeatureClassBased,ReturnAll,,ExactParcelCentroidPoint,,,1,38.77217468,-77.07989322,Relaxed
95233,7-Eleven Inc F 24645A,3827 S George Mason Dr,,Falls Church,VA,22041,3763,FAIRFAX,215,USCGeocoder,15.6263,1,4.1,,,3,StreetSegmentInterpolation,Success,LOCATION_TYPE_STREET_ADDRESS,Meters,LinearInterpolation,3381.795073,LinearInterpolationAddressRange,StreetSegment,98.99408284,FeatureClassBased,ReturnAll,,AddressRangeInterpolation,,,1,38.84148948,-77.12001811,Relaxed
95444,7-eleven Inc F 29167B,2311 2nd St S,,Arlington,VA,22204,2009,ARLINGTON,216,USCGeocoder,124.1096,1,4.1,,,3,StreetSegmentInterpolation,Success,LOCATION_TYPE_STREET_ADDRESS,Meters,LinearInterpolation,1367.489865,LinearInterpolationAddressRange,StreetSegment,100,FeatureClassBased,ReturnAll,,AddressRangeInterpolation,,,1,38.87163233,-77.08428142,Exact
95502,7-Eleven Inc F 18432A,3600 Columbia Pike,,Arlington,VA,22204,4206,ARLINGTON,217,USCGeocoder,15.63,1,4.1,,,3,StreetSegmentInterpolation,Success,LOCATION_TYPE_STREET_ADDRESS,Meters,LinearInterpolation,3577.321712,LinearInterpolationAddressRange,StreetSegment,97.92899408,FeatureClassBased,ReturnAll,,AddressRangeInterpolation,,,1,38.86068263,-77.09391385,Relaxed
95810,Giant Food Store 2744,9400 Fairfax Blvd,,Fairfax,VA,22031,2406,FAIRFAX,218,USCGeocoder,31.2777,1,4.1,,,3,StreetSegmentInterpolation,Success,LOCATION_TYPE_STREET_ADDRESS,Meters,LinearInterpolation,2894.7802,LinearInterpolationAddressRange,StreetSegment,100,FeatureClassBased,ReturnAll,,AddressRangeInterpolation,,,1,38.86512441,-77.27039492,Exact
96037,Loza Market,10 S Jordan St,,Alexandria,VA,22304,4914,ALEXANDRIA,219,USCGeocoder,15.618,1,4.1,,,3,StreetSegmentInterpolation,Success,LOCATION_TYPE_STREET_ADDRESS,Meters,LinearInterpolation,3166.770789,LinearInterpolationAddressRange,StreetSegment,100,FeatureClassBased,ReturnAll,,AddressRangeInterpolation,,,1,38.81181897,-77.10954205,Exact
96097,"Sk Dominion Market, Llc",1201 S Courthouse Rd,,Arlington,VA,22204,812,ARLINGTON,220,USCGeocoder,0,1,4.1,,,2,Parcel,Success,LOCATION_TYPE_STREET_ADDRESS,Meters,ArealInterpolation,27742.93167,ArealInterpolationGeometricCentroid,Parcel,99,FeatureClassBased,ReturnAll,,ExactParcelCentroidPoint,,,1,38.86230502,-77.07854351,Relaxed
96125,7-Eleven Inc F 10782A,30 S Reynolds St,,Alexandria,VA,22304,3106,ALEXANDRIA,221,USCGeocoder,31.2564,1,4.1,,,3,StreetSegmentInterpolation,Success,LOCATION_TYPE_STREET_ADDRESS,Meters,LinearInterpolation,4536.269236,LinearInterpolationAddressRange,StreetSegment,100,FeatureClassBased,ReturnAll,,AddressRangeInterpolation,,,1,38.81256576,-77.12532433,Exact
97247,7-Eleven Inc F 10764A,800 Franklin St,,Alexandria,VA,22314,4106,ALEXANDRIA,222,USCGeocoder,46.9454,1,4.1,,,3,StreetSegmentInterpolation,Success,LOCATION_TYPE_STREET_ADDRESS,Meters,LinearInterpolation,2215.267798,LinearInterpolationAddressRange,StreetSegment,100,FeatureClassBased,ReturnAll,,AddressRangeInterpolation,,,1,38.79824327,-77.04960046,Exact
97690,7-Eleven Inc F 10766A,2305 Huntington Ave,,Alexandria,VA,22303,1529,FAIRFAX,223,USCGeocoder,31.2579,1,4.1,,,3,StreetSegmentInterpolation,Success,LOCATION_TYPE_STREET_ADDRESS,Meters,LinearInterpolation,4957.048074,LinearInterpolationAddressRange,StreetSegment,98.99408284,FeatureClassBased,ReturnAll,,AddressRangeInterpolation,,,1,38.79413506,-77.07076163,Relaxed
97864,Harris Teeter 235,4250 Campbell Ave,,Arlington,VA,22206,3426,ARLINGTON,224,USCGeocoder,0,1,4.1,,,3,StreetSegmentInterpolation,Success,LOCATION_TYPE_STREET_ADDRESS,Meters,LinearInterpolation,3090.100095,LinearInterpolationAddressRange,StreetSegment,100,FeatureClassBased,ReturnAll,,AddressRangeInterpolation,,,1,38.84158683,-77.08991492,Exact
99030,7-Eleven Inc F 10792A,8904 Gunston Rd,,Lorton,VA,22079,,FAIRFAX,225,USCGeocoder,125.0062,1,4.1,,,9,AddressZIPCentroid,Success,LOCATION_TYPE_STREET_ADDRESS,Meters,ArealInterpolation,92852552.05,ArealInterpolationGeometricCentroid,USPSZip,60,FeatureClassBased,ReturnAll,,USPSZipAreaCentroid,,,1,38.6901,-77.2065,Relaxed;Soundex
99430,Bestway Supermarket,5695 Telegraph Rd,,Alexandria,VA,22303,1233,FAIRFAX,226,USCGeocoder,62.4965,1,4.1,,,3,StreetSegmentInterpolation,Success,LOCATION_TYPE_STREET_ADDRESS,Meters,LinearInterpolation,1350.337572,LinearInterpolationAddressRange,StreetSegment,98.99408284,FeatureClassBased,ReturnAll,,AddressRangeInterpolation,,,1,38.7969686,-77.08121717,Relaxed
100539,7-Eleven Inc F 10735A,3420 Carlin Springs Rd,,Falls Church,VA,22041,2803,FAIRFAX,227,USCGeocoder,46.6813,1,4.1,,,3,StreetSegmentInterpolation,Success,LOCATION_TYPE_STREET_ADDRESS,Meters,LinearInterpolation,30694.70535,LinearInterpolationAddressRange,StreetSegment,98.99408284,FeatureClassBased,ReturnAll,,AddressRangeInterpolation,,,1,38.85223719,-77.12212088,Relaxed
101267,7-Eleven Inc F 10772A,6946 S Kings Hwy,,Alexandria,VA,22310,3331,FAIRFAX,228,USCGeocoder,0,1,4.1,,,2,Parcel,Success,LOCATION_TYPE_STREET_ADDRESS,Meters,ArealInterpolation,1763.17045,ArealInterpolationGeometricCentroid,Parcel,96,FeatureClassBased,ReturnAll,,ExactParcelCentroidPoint,,,1,38.76792937,-77.12001096,Relaxed
101270,7-ELeven Inc F 10761A,8434 Frye Rd,,Alexandria,VA,22309,8426,FAIRFAX,229,USCGeocoder,0,1,4.1,,,2,Parcel,Success,LOCATION_TYPE_STREET_ADDRESS,Meters,ArealInterpolation,4183.751228,ArealInterpolationGeometricCentroid,Parcel,96,FeatureClassBased,ReturnAll,,ExactParcelCentroidPoint,,,1,38.72769342,-77.11273774,Relaxed
101344,Super Giant 233,7235 Arlington Blvd,,Falls Church,VA,22042,3219,FAIRFAX,230,USCGeocoder,15.6192,1,4.1,,,3,StreetSegmentInterpolation,Success,LOCATION_TYPE_STREET_ADDRESS,Meters,LinearInterpolation,2965.204598,LinearInterpolationAddressRange,StreetSegment,98.99408284,FeatureClassBased,ReturnAll,,AddressRangeInterpolation,,,1,38.86628391,-77.1951152,Relaxed
101365,7-Eleven Inc F 10743B,2815 S Wakefield St,,Arlington,VA,22206,1103,ARLINGTON,231,USCGeocoder,15.6306,1,4.1,,,2,Parcel,Success,LOCATION_TYPE_STREET_ADDRESS,Meters,ArealInterpolation,1255.708451,ArealInterpolationGeometricCentroid,Parcel,99,FeatureClassBased,ReturnAll,,ExactParcelCentroidPoint,,,1,38.84409287,-77.09778504,Relaxed
102189,CVS PHARMACY 1417,13031 Lee Jackson Memorial Hwy,,Fairfax,VA,22033,2050,FAIRFAX,232,USCGeocoder,15.6251,1,4.1,,,3,StreetSegmentInterpolation,Success,LOCATION_TYPE_STREET_ADDRESS,Meters,LinearInterpolation,6004.603033,LinearInterpolationAddressRange,StreetSegment,98.99408284,FeatureClassBased,ReturnAll,,AddressRangeInterpolation,,,1,38.88046694,-77.39656886,Relaxed
102195,CVS PHARMACY 1373,433 S Washington St,,Alexandria,VA,22314,3629,ALEXANDRIA,233,USCGeocoder,62.5029,1,4.1,,,3,StreetSegmentInterpolation,Success,LOCATION_TYPE_STREET_ADDRESS,Meters,LinearInterpolation,2850.134528,LinearInterpolationAddressRange,StreetSegment,100,FeatureClassBased,ReturnAll,,AddressRangeInterpolation,,,1,38.80145207,-77.04783844,Exact
103068,Yemex International Grocery,6130 N Kings Hwy,,Alexandria,VA,22303,2441,FAIRFAX,234,USCGeocoder,15.6232,1,4.1,,,3,StreetSegmentInterpolation,Success,LOCATION_TYPE_STREET_ADDRESS,Meters,LinearInterpolation,4467.444371,LinearInterpolationAddressRange,StreetSegment,98.99408284,FeatureClassBased,ReturnAll,,AddressRangeInterpolation,,,1,38.78555619,-77.07777887,Relaxed
103662,Shri Krishna Grocery,7106 Brookfield Plz,,Springfield,VA,22150,2917,FAIRFAX,235,USCGeocoder,62.5042,1,4.1,,,3,StreetSegmentInterpolation,Success,LOCATION_TYPE_STREET_ADDRESS,Meters,LinearInterpolation,4974.23706,LinearInterpolationAddressRange,StreetSegment,100,FeatureClassBased,ReturnAll,,AddressRangeInterpolation,,,1,38.77383649,-77.18527413,Exact
103765,Lidl 1229,6801 Commerce St,,Springfield,VA,22150,2602,FAIRFAX,236,USCGeocoder,15.6272,1,4.1,,,2,Parcel,Success,LOCATION_TYPE_STREET_ADDRESS,Meters,ArealInterpolation,11739.42711,ArealInterpolationGeometricCentroid,Parcel,96,FeatureClassBased,ReturnAll,,ExactParcelCentroidPoint,,,1,38.78183217,-77.1834895,Relaxed
103791,Bailey's Maket & Carry Out,6035 Leesburg Pike,,Falls Church,VA,22041,2203,FAIRFAX,237,USCGeocoder,15.6178,1,4.1,,,3,StreetSegmentInterpolation,Success,LOCATION_TYPE_STREET_ADDRESS,Meters,LinearInterpolation,2567.267555,LinearInterpolationAddressRange,StreetSegment,98.99408284,FeatureClassBased,ReturnAll,,AddressRangeInterpolation,,,1,38.8556606,-77.13930309,Relaxed
104533,Harris Teeter 85,12960 Woodland Crossing Dr,,Herndon,VA,20171,,FAIRFAX,238,USCGeocoder,156.2558,1,4.1,,,9,AddressZIPCentroid,Success,LOCATION_TYPE_STREET_ADDRESS,Meters,ArealInterpolation,31539968.15,ArealInterpolationGeometricCentroid,USPSZip,60,FeatureClassBased,ReturnAll,,USPSZipAreaCentroid,,,1,38.925711,-77.403864,Relaxed;Soundex
105293,H Mart,7885 Heritage Dr,,Annandale,VA,22003,5349,FAIRFAX,239,USCGeocoder,31.2518,1,4.1,,,3,StreetSegmentInterpolation,Success,LOCATION_TYPE_STREET_ADDRESS,Meters,LinearInterpolation,4787.385047,LinearInterpolationAddressRange,StreetSegment,100,FeatureClassBased,ReturnAll,,AddressRangeInterpolation,,,1,38.82508651,-77.21328487,Exact
105356,7-eleven 10781c 10781C,1910 Elkin St,,Alexandria,VA,22308,2422,FAIRFAX,240,USCGeocoder,0,1,4.1,,,2,Parcel,Success,LOCATION_TYPE_STREET_ADDRESS,Meters,ArealInterpolation,1444.134419,ArealInterpolationGeometricCentroid,Parcel,96,FeatureClassBased,ReturnAll,,ExactParcelCentroidPoint,,,1,38.72268866,-77.06348994,Relaxed
106821,Dollar Tree 237,9534 Main St,,Fairfax,VA,22031,4031,FAIRFAX,241,USCGeocoder,15.6246,1,4.1,,,3,StreetSegmentInterpolation,Success,LOCATION_TYPE_STREET_ADDRESS,Meters,LinearInterpolation,10973.00696,LinearInterpolationAddressRange,StreetSegment,100,FeatureClassBased,ReturnAll,,AddressRangeInterpolation,,,1,38.84133816,-77.2730974,Exact
106822,Dollar Tree 267,6140 Rose Hill Dr,,Alexandria,VA,22310,1901,FAIRFAX,242,USCGeocoder,15.6279,1,4.1,,,3,StreetSegmentInterpolation,Success,LOCATION_TYPE_STREET_ADDRESS,Meters,LinearInterpolation,1802.55807,LinearInterpolationAddressRange,StreetSegment,98.99408284,FeatureClassBased,ReturnAll,,AddressRangeInterpolation,,,1,38.78448634,-77.12092423,Relaxed
107057,7-Eleven Inc F 10732A,1667 N Quaker Ln,,Alexandria,VA,22302,2338,ALEXANDRIA,243,USCGeocoder,31.2422,1,4.1,,,3,StreetSegmentInterpolation,Success,LOCATION_TYPE_STREET_ADDRESS,Meters,LinearInterpolation,7516.492581,LinearInterpolationAddressRange,StreetSegment,100,FeatureClassBased,ReturnAll,,AddressRangeInterpolation,,,1,38.8307922,-77.08533783,Exact
107797,7-Eleven Inc F 10768A,2405 Fairhaven Ave,,Alexandria,VA,22303,2301,FAIRFAX,244,USCGeocoder,0,1,4.1,,,2,Parcel,Success,LOCATION_TYPE_STREET_ADDRESS,Meters,ArealInterpolation,663.2836607,ArealInterpolationGeometricCentroid,Parcel,96,FeatureClassBased,ReturnAll,,ExactParcelCentroidPoint,,,1,38.78450035,-77.0739475,Relaxed
107798,7-Eleven Inc F 16010A,8010 Richmond Hwy,,Alexandria,VA,22306,3033,FAIRFAX,245,USCGeocoder,15.6203,1,4.1,,,2,Parcel,Success,LOCATION_TYPE_STREET_ADDRESS,Meters,ArealInterpolation,2070.884879,ArealInterpolationGeometricCentroid,Parcel,96,FeatureClassBased,ReturnAll,,ExactParcelCentroidPoint,,,1,38.74027943,-77.0883215,Relaxed
107809,Mart Eleven Convenience Store,301 N Ripley St,,Alexandria,VA,22304,5701,ALEXANDRIA,246,USCGeocoder,31.258,1,4.1,,,3,StreetSegmentInterpolation,Success,LOCATION_TYPE_STREET_ADDRESS,Meters,LinearInterpolation,3340.193832,LinearInterpolationAddressRange,StreetSegment,100,FeatureClassBased,ReturnAll,,AddressRangeInterpolation,,,1,38.81634596,-77.1265831,Exact
108652,Harris Teeter 83,900 Army Navy Dr,,Arlington,VA,22202,,ARLINGTON,247,USCGeocoder,109.3717,1,4.1,,,9,AddressZIPCentroid,Success,LOCATION_TYPE_STREET_ADDRESS,Meters,ArealInterpolation,10262342.79,ArealInterpolationGeometricCentroid,USPSZip,60,FeatureClassBased,ReturnAll,,USPSZipAreaCentroid,,,1,38.861338,-77.056739,Relaxed;Soundex
108965,CVS PHARMACY 1407,3133 Lee Hwy,,Arlington,VA,22201,4207,ARLINGTON,248,USCGeocoder,31.2549,1,4.1,,,3,StreetSegmentInterpolation,Success,LOCATION_TYPE_STREET_ADDRESS,Meters,LinearInterpolation,1226.986179,LinearInterpolationAddressRange,StreetSegment,100,FeatureClassBased,ReturnAll,,AddressRangeInterpolation,,,1,38.89605162,-77.09841624,Exact
108973,CVS PHARMACY 1416,5652 Pickwick Rd,,Centreville,VA,20120,2057,FAIRFAX,249,USCGeocoder,62.4982,1,4.1,,,3,StreetSegmentInterpolation,Success,LOCATION_TYPE_STREET_ADDRESS,Meters,LinearInterpolation,2800.108835,LinearInterpolationAddressRange,StreetSegment,100,FeatureClassBased,ReturnAll,,AddressRangeInterpolation,,,1,38.83979397,-77.42323855,Exact
108974,CVS PHARMACY 1419,3919 Centreville Rd,,Chantilly,VA,20151,3203,FAIRFAX,250,USCGeocoder,15.6288,1,4.1,,,2,Parcel,Success,LOCATION_TYPE_STREET_ADDRESS,Meters,ArealInterpolation,2917.53169,ArealInterpolationGeometricCentroid,Parcel,96,FeatureClassBased,ReturnAll,,ExactParcelCentroidPoint,,,1,38.89495639,-77.4302258,Relaxed
108975,CVS PHARMACY 2343,5101 Duke St,,Alexandria,VA,22304,2905,ALEXANDRIA,251,USCGeocoder,0,1,4.1,,,3,StreetSegmentInterpolation,Success,LOCATION_TYPE_STREET_ADDRESS,Meters,LinearInterpolation,6917.894633,LinearInterpolationAddressRange,StreetSegment,100,FeatureClassBased,ReturnAll,,AddressRangeInterpolation,,,1,38.81213152,-77.11844709,Exact
108978,CVS PHARMACY 1847,264 Cedar Ln SE,,Vienna,VA,22180,6613,FAIRFAX,252,USCGeocoder,46.8742,1,4.1,,,9,AddressZIPCentroid,Success,LOCATION_TYPE_STREET_ADDRESS,Meters,ArealInterpolation,15070035.28,ArealInterpolationGeometricCentroid,USPSZip,60,FeatureClassBased,ReturnAll,,USPSZipAreaCentroid,,,1,38.896094,-77.256034,Relaxed;Soundex
108980,CVS PHARMACY 2007,3120 Duke St,,Alexandria,VA,22314,4532,ALEXANDRIA,253,USCGeocoder,15.6289,1,4.1,,,3,StreetSegmentInterpolation,Success,LOCATION_TYPE_STREET_ADDRESS,Meters,LinearInterpolation,6187.708686,LinearInterpolationAddressRange,StreetSegment,100,FeatureClassBased,ReturnAll,,AddressRangeInterpolation,,,1,38.80770366,-77.08412001,Exact
109945,Giant Food Store 2748,6360 Seven Corners Ctr,,Falls Church,VA,22044,2409,FAIRFAX,254,USCGeocoder,31.254,1,4.1,,,3,StreetSegmentInterpolation,Success,LOCATION_TYPE_STREET_ADDRESS,Meters,LinearInterpolation,28398.04764,LinearInterpolationAddressRange,StreetSegment,90.71005917,FeatureClassBased,ReturnAll,,AddressRangeInterpolation,,,1,38.86914451,-77.15200925,Relaxed;Soundex
110165,Dollar Tree 3720,13653B Lee Jackson Hwy,,Chantilly,VA,20151,3502,FAIRFAX,255,USCGeocoder,109.3777,1,4.1,,,9,AddressZIPCentroid,Success,LOCATION_TYPE_STREET_ADDRESS,Meters,ArealInterpolation,40587317.75,ArealInterpolationGeometricCentroid,USPSZip,60,FeatureClassBased,ReturnAll,,USPSZipAreaCentroid,,,1,38.888306,-77.453725,Relaxed;Soundex
110828,Dollar Tree 225,6198 Little River Tpke,,Alexandria,VA,22312,1722,FAIRFAX,256,USCGeocoder,15.6256,1,4.1,,,3,StreetSegmentInterpolation,Success,LOCATION_TYPE_STREET_ADDRESS,Meters,LinearInterpolation,2524.457551,LinearInterpolationAddressRange,StreetSegment,98.99408284,FeatureClassBased,ReturnAll,,AddressRangeInterpolation,,,1,38.81721675,-77.14059095,Relaxed
110830,Dollar Tree 366,7700A Gunston Plz,,Lorton,VA,22079,1897,FAIRFAX,257,USCGeocoder,15.6249,1,4.1,,,3,StreetSegmentInterpolation,Success,LOCATION_TYPE_STREET_ADDRESS,Meters,LinearInterpolation,868.1394324,LinearInterpolationAddressRange,StreetSegment,100,FeatureClassBased,ReturnAll,,AddressRangeInterpolation,,,1,38.70368853,-77.20961413,Exact
112340,7-Eleven Inc F 20407A,5122 Wilson Blvd,,Arlington,VA,22205,1112,ARLINGTON,258,USCGeocoder,15.6279,1,4.1,,,2,Parcel,Success,LOCATION_TYPE_STREET_ADDRESS,Meters,ArealInterpolation,1987.551936,ArealInterpolationGeometricCentroid,Parcel,100,FeatureClassBased,ReturnAll,,ExactParcelCentroidPoint,,,1,38.87755782,-77.12269014,Exact
112534,Walgreens 10165,603 Elden St,,Herndon,VA,20170,4722,FAIRFAX,259,USCGeocoder,15.6238,1,4.1,,,3,StreetSegmentInterpolation,Success,LOCATION_TYPE_STREET_ADDRESS,Meters,LinearInterpolation,2364.670824,LinearInterpolationAddressRange,StreetSegment,100,FeatureClassBased,ReturnAll,,AddressRangeInterpolation,,,1,38.96910416,-77.38147362,Exact
112536,Walgreens 10233,7629 Richmond Hwy,,Alexandria,VA,22306,2802,FAIRFAX,260,USCGeocoder,0,1,4.1,,,2,Parcel,Success,LOCATION_TYPE_STREET_ADDRESS,Meters,ArealInterpolation,2986.992043,ArealInterpolationGeometricCentroid,Parcel,96,FeatureClassBased,ReturnAll,,ExactParcelCentroidPoint,,,1,38.75021805,-77.08259563,Relaxed
112765,7-Eleven Inc F 10716A,3901 Lee Hwy,,Arlington,VA,22207,3728,ARLINGTON,261,USCGeocoder,15.6252,1,4.1,,,3,StreetSegmentInterpolation,Success,LOCATION_TYPE_STREET_ADDRESS,Meters,LinearInterpolation,1209.592104,LinearInterpolationAddressRange,StreetSegment,100,FeatureClassBased,ReturnAll,,AddressRangeInterpolation,,,1,38.89672657,-77.10727014,Exact
113050,7-Eleven Inc F 10765A,3412 Mount Vernon Ave,,Alexandria,VA,22305,2604,ALEXANDRIA,262,USCGeocoder,0,1,4.1,,,3,StreetSegmentInterpolation,Success,LOCATION_TYPE_STREET_ADDRESS,Meters,LinearInterpolation,3138.217189,LinearInterpolationAddressRange,StreetSegment,100,FeatureClassBased,ReturnAll,,AddressRangeInterpolation,,,1,38.83561785,-77.06070191,Exact
113774,7 Eleven Inc F 10740A,2525 Lee Hwy,,Arlington,VA,22201,4023,ARLINGTON,263,USCGeocoder,0,1,4.1,,,2,Parcel,Success,LOCATION_TYPE_STREET_ADDRESS,Meters,ArealInterpolation,991.9569554,ArealInterpolationGeometricCentroid,Parcel,100,FeatureClassBased,ReturnAll,,ExactParcelCentroidPoint,,,1,38.89514309,-77.09102369,Exact
113912,Chantilly Farmers Market,3640 Centreville Rd,,Chantilly,VA,20151,3007,FAIRFAX,264,USCGeocoder,15.6232,1,4.1,,,3,StreetSegmentInterpolation,Success,LOCATION_TYPE_STREET_ADDRESS,Meters,LinearInterpolation,3439.463973,LinearInterpolationAddressRange,StreetSegment,100,FeatureClassBased,ReturnAll,,AddressRangeInterpolation,,,1,38.90125488,-77.4253027,Exact
114519,Springfield Farmers Market,6699 Spring Mall Rd,,Springfield,VA,22150,1906,FAIRFAX,265,USCGeocoder,218.7568,1,4.1,,,9,AddressZIPCentroid,Success,LOCATION_TYPE_STREET_ADDRESS,Meters,ArealInterpolation,19591228.79,ArealInterpolationGeometricCentroid,USPSZip,60,FeatureClassBased,ReturnAll,,USPSZipAreaCentroid,,,1,38.773578,-77.18702,Relaxed;Soundex
115731,"H Mart Burke, Llc",9550 Burke Rd,,Burke,VA,22015,3132,FAIRFAX,266,USCGeocoder,46.8775,1,4.1,,,3,StreetSegmentInterpolation,Success,LOCATION_TYPE_STREET_ADDRESS,Meters,LinearInterpolation,1491.876228,LinearInterpolationAddressRange,StreetSegment,100,FeatureClassBased,ReturnAll,,AddressRangeInterpolation,,,1,38.7950713,-77.27329511,Exact
117054,B Js Wholesale Club 33,13053 Fair Lakes Shopping Ctr,,Fairfax,VA,22033,5179,FAIRFAX,267,USCGeocoder,15.6274,1,4.1,,,3,StreetSegmentInterpolation,Success,LOCATION_TYPE_STREET_ADDRESS,Meters,LinearInterpolation,21741.86765,LinearInterpolationAddressRange,StreetSegment,93.37278107,FeatureClassBased,ReturnAll,,AddressRangeInterpolation,,,1,38.85614169,-77.39609653,Relaxed;Soundex
117198,Tsedey Market,668 S Pickett St,,Alexandria,VA,22304,4620,ALEXANDRIA,268,USCGeocoder,15.6283,1,4.1,,,3,StreetSegmentInterpolation,Success,LOCATION_TYPE_STREET_ADDRESS,Meters,LinearInterpolation,15001.62299,LinearInterpolationAddressRange,StreetSegment,100,FeatureClassBased,ReturnAll,,AddressRangeInterpolation,,,1,38.80418675,-77.13295348,Exact
117539,B Js Wholesale Club 46,101 S Van Dorn St,,Alexandria,VA,22304,4301,ALEXANDRIA,269,USCGeocoder,15.615,1,4.1,,,3,StreetSegmentInterpolation,Success,LOCATION_TYPE_STREET_ADDRESS,Meters,LinearInterpolation,3214.833426,LinearInterpolationAddressRange,StreetSegment,100,FeatureClassBased,ReturnAll,,AddressRangeInterpolation,,,1,38.81428638,-77.12948941,Exact
118123,New Grandmart,6326 Arlington Blvd,,Falls Church,VA,22044,2013,FAIRFAX,270,USCGeocoder,0,1,4.1,,,2,Parcel,Success,LOCATION_TYPE_STREET_ADDRESS,Meters,ArealInterpolation,10722.3421,ArealInterpolationGeometricCentroid,Parcel,96,FeatureClassBased,ReturnAll,,ExactParcelCentroidPoint,,,1,38.87305002,-77.15892544,Relaxed
118245,Wegmans 49,7905 Hilltop Village Center Drive,,Alexandria,VA,22315,,FAIRFAX,271,USCGeocoder,109.3761,1,4.1,,,9,AddressZIPCentroid,Success,LOCATION_TYPE_STREET_ADDRESS,Meters,ArealInterpolation,14570873.85,ArealInterpolationGeometricCentroid,USPSZip,60,FeatureClassBased,ReturnAll,,USPSZipAreaCentroid,,,1,38.78448,-77.1252,Relaxed;Soundex
118270,Mediterranean Bakery & Cafe,352 S Pickett St,,Alexandria,VA,22304,4704,ALEXANDRIA,272,USCGeocoder,15.6083,1,4.1,,,3,StreetSegmentInterpolation,Success,LOCATION_TYPE_STREET_ADDRESS,Meters,LinearInterpolation,12095.48971,LinearInterpolationAddressRange,StreetSegment,100,FeatureClassBased,ReturnAll,,AddressRangeInterpolation,,,1,38.80857561,-77.12545495,Exact
118408,Walgreens 10616,6717 Richmond Hwy,,Alexandria,VA,22306,6704,FAIRFAX,273,USCGeocoder,0,1,4.1,,,2,Parcel,Success,LOCATION_TYPE_STREET_ADDRESS,Meters,ArealInterpolation,3215.115346,ArealInterpolationGeometricCentroid,Parcel,96,FeatureClassBased,ReturnAll,,ExactParcelCentroidPoint,,,1,38.77181553,-77.08060687,Relaxed
118720,Wawa Store 8669,465 Maple Ave.,,Vienna,VA,22180,,FAIRFAX,274,USCGeocoder,0,1,4.1,,,2,Parcel,Success,LOCATION_TYPE_STREET_ADDRESS,Meters,ArealInterpolation,3439.591311,ArealInterpolationGeometricCentroid,Parcel,96,FeatureClassBased,ReturnAll,,ExactParcelCentroidPoint,,,1,38.89512364,-77.27406155,Relaxed
118960,Adum Tropical Market,8332A Richmond Hwy,,Alexandria,VA,22309,2331,FAIRFAX,275,USCGeocoder,15.626,1,4.1,,,3,StreetSegmentInterpolation,Success,LOCATION_TYPE_STREET_ADDRESS,Meters,LinearInterpolation,3097.148079,LinearInterpolationAddressRange,StreetSegment,98.99408284,FeatureClassBased,ReturnAll,,AddressRangeInterpolation,,,1,38.73203936,-77.10243961,Relaxed
119890,Beirut Halal Butcher,3407 Payne St,,Falls Church,VA,22041,2319,FAIRFAX,276,USCGeocoder,31.2532,1,4.1,,,3,StreetSegmentInterpolation,Success,LOCATION_TYPE_STREET_ADDRESS,Meters,LinearInterpolation,2319.731239,LinearInterpolationAddressRange,StreetSegment,98.99408284,FeatureClassBased,ReturnAll,,AddressRangeInterpolation,,,1,38.85299947,-77.13214945,Relaxed
120388,Nakheel,340 Maple Ave W,,Vienna,VA,22180,5612,FAIRFAX,277,USCGeocoder,15.2264,1,4.1,,,3,StreetSegmentInterpolation,Success,LOCATION_TYPE_STREET_ADDRESS,Meters,LinearInterpolation,3240.337733,LinearInterpolationAddressRange,StreetSegment,100,FeatureClassBased,ReturnAll,,AddressRangeInterpolation,,,1,38.89732076,-77.27039451,Exact
120442,Al Makkah Mart,14504A Lee Rd,,Chantilly,VA,20151,1634,FAIRFAX,278,USCGeocoder,15.6519,1,4.1,,,2,Parcel,Success,LOCATION_TYPE_STREET_ADDRESS,Meters,ArealInterpolation,5531.988421,ArealInterpolationGeometricCentroid,Parcel,93.63313609,FeatureClassBased,ReturnAll,,ExactParcelCentroidPoint,,,1,38.89885793,-77.44775489,Relaxed
120926,7-eleven 10722,3011 Patrick Henry Dr,,Falls Church,VA,22044,2521,FAIRFAX,279,USCGeocoder,0,1,4.1,,,2,Parcel,Success,LOCATION_TYPE_STREET_ADDRESS,Meters,ArealInterpolation,988.7416103,ArealInterpolationGeometricCentroid,Parcel,96,FeatureClassBased,ReturnAll,,ExactParcelCentroidPoint,,,1,38.86755323,-77.1471122,Relaxed
120936,Harris Teeter 302,8200 Crestwood Heights Dr,,McLean,VA,22102,,FAIRFAX,280,USCGeocoder,62.483,1,4.1,,,3,StreetSegmentInterpolation,Success,LOCATION_TYPE_STREET_ADDRESS,Meters,LinearInterpolation,10115.84886,LinearInterpolationAddressRange,StreetSegment,98.99408284,FeatureClassBased,ReturnAll,,AddressRangeInterpolation,,,1,38.9307245,-77.22751375,Relaxed
121338,Amazon Fresh - Alexandria,7005 C Manchester Blvd,,Alexandria,VA,22310,3205,FAIRFAX,281,USCGeocoder,15.4274,1,4.1,,,3,StreetSegmentInterpolation,Success,LOCATION_TYPE_STREET_ADDRESS,Meters,LinearInterpolation,4634.000096,LinearInterpolationAddressRange,StreetSegment,98.99408284,FeatureClassBased,ReturnAll,,AddressRangeInterpolation,,,1,38.76540839,-77.1553255,Relaxed
125681,Merkato Market Llc,6816 Bland St,,Springfield,VA,22150,2612,FAIRFAX,282,USCGeocoder,46.871,1,4.1,,,3,StreetSegmentInterpolation,Success,LOCATION_TYPE_STREET_ADDRESS,Meters,LinearInterpolation,3887.990207,LinearInterpolationAddressRange,StreetSegment,100,FeatureClassBased,ReturnAll,,AddressRangeInterpolation,,,1,38.78076741,-77.18478268,Exact
127455,7-Eleven Inc F 10677B,3019 Annandale Rd,,Falls Church,VA,22042,3003,FAIRFAX,283,USCGeocoder,0,1,4.1,,,2,Parcel,Success,LOCATION_TYPE_STREET_ADDRESS,Meters,ArealInterpolation,1296.779405,ArealInterpolationGeometricCentroid,Parcel,96,FeatureClassBased,ReturnAll,,ExactParcelCentroidPoint,,,1,38.86847635,-77.17429466,Relaxed
127597,DOLLARTREE 5713,670 Elden St,,Herndon,VA,20170,4723,FAIRFAX,284,USCGeocoder,0,1,4.1,,,3,StreetSegmentInterpolation,Success,LOCATION_TYPE_STREET_ADDRESS,Meters,LinearInterpolation,4090.652703,LinearInterpolationAddressRange,StreetSegment,100,FeatureClassBased,ReturnAll,,AddressRangeInterpolation,,,1,38.96956162,-77.38265226,Exact
